[
  {
    "street": "2. gardijska brigada Gromovi",
    "lat": 45.7857809031,
    "lon": 16.1763034019,
    "address_count": 2,
    "capacity": 39,
    "current_cars": 14,
    "occupancy": 0.36
  },
  {
    "street": "Abramovićeva ulica",
    "lat": 45.762081529,
    "lon": 15.9926087492,
    "address_count": 7,
    "capacity": 35,
    "current_cars": 15,
    "occupancy": 0.43
  },
  {
    "street": "Adamičeva ulica",
    "lat": 45.7801984286,
    "lon": 15.9997111074,
    "address_count": 11,
    "capacity": 71,
    "current_cars": 54,
    "occupancy": 0.76
  },
  {
    "street": "Agacijska ulica",
    "lat": 45.8357983123,
    "lon": 16.0418357385,
    "address_count": 11,
    "capacity": 31,
    "current_cars": 14,
    "occupancy": 0.45
  },
  {
    "street": "Albaharijeva ulica",
    "lat": 45.7910129608,
    "lon": 15.9505750833,
    "address_count": 7,
    "capacity": 60,
    "current_cars": 52,
    "occupancy": 0.87
  },
  {
    "street": "Albinijeva ulica",
    "lat": 45.7657488197,
    "lon": 16.0057230184,
    "address_count": 8,
    "capacity": 19,
    "current_cars": 7,
    "occupancy": 0.37
  },
  {
    "street": "Aleja Antuna Augustinčića",
    "lat": 45.8189924762,
    "lon": 16.0264928657,
    "address_count": 20,
    "capacity": 53,
    "current_cars": 36,
    "occupancy": 0.68
  },
  {
    "street": "Aleja Blaža Jurišića",
    "lat": 45.8371599569,
    "lon": 16.0526566618,
    "address_count": 41,
    "capacity": 27,
    "current_cars": 13,
    "occupancy": 0.48
  },
  {
    "street": "Aleja Hermanna Bollea",
    "lat": 45.831676333,
    "lon": 15.9845317516,
    "address_count": 21,
    "capacity": 33,
    "current_cars": 21,
    "occupancy": 0.64
  },
  {
    "street": "Aleja Matije Ljubeka",
    "lat": 45.7821411443,
    "lon": 15.9232037507,
    "address_count": 24,
    "capacity": 18,
    "current_cars": 8,
    "occupancy": 0.44
  },
  {
    "street": "Aleja Seljačke bune",
    "lat": 45.8213905889,
    "lon": 15.8311010226,
    "address_count": 51,
    "capacity": 23,
    "current_cars": 7,
    "occupancy": 0.3
  },
  {
    "street": "Aleja Vlade Antolića",
    "lat": 45.792248734,
    "lon": 15.964630445,
    "address_count": 2,
    "capacity": 72,
    "current_cars": 36,
    "occupancy": 0.5
  },
  {
    "street": "Aleja grabova",
    "lat": 45.8268346929,
    "lon": 16.0739988141,
    "address_count": 7,
    "capacity": 56,
    "current_cars": 31,
    "occupancy": 0.55
  },
  {
    "street": "Aleja grada Bolonje",
    "lat": 45.8131508397,
    "lon": 15.8893163519,
    "address_count": 26,
    "capacity": 34,
    "current_cars": 16,
    "occupancy": 0.47
  },
  {
    "street": "Aleja hrvatske mladeži",
    "lat": 45.8537961895,
    "lon": 16.050410999,
    "address_count": 42,
    "capacity": 66,
    "current_cars": 27,
    "occupancy": 0.41
  },
  {
    "street": "Aleja javora",
    "lat": 45.8247377265,
    "lon": 16.0692478802,
    "address_count": 60,
    "capacity": 65,
    "current_cars": 50,
    "occupancy": 0.77
  },
  {
    "street": "Aleja lipa",
    "lat": 45.824978061,
    "lon": 16.066340053,
    "address_count": 51,
    "capacity": 42,
    "current_cars": 27,
    "occupancy": 0.64
  },
  {
    "street": "Aleja mira",
    "lat": 45.8595492737,
    "lon": 16.1193930546,
    "address_count": 43,
    "capacity": 51,
    "current_cars": 28,
    "occupancy": 0.55
  },
  {
    "street": "Aleja pomoraca",
    "lat": 45.772916645,
    "lon": 15.9753712938,
    "address_count": 12,
    "capacity": 16,
    "current_cars": 12,
    "occupancy": 0.75
  },
  {
    "street": "Aleja ruža",
    "lat": 45.8251370175,
    "lon": 16.0717883888,
    "address_count": 50,
    "capacity": 24,
    "current_cars": 7,
    "occupancy": 0.29
  },
  {
    "street": "Aleja tišine",
    "lat": 45.8401039236,
    "lon": 16.0457618807,
    "address_count": 27,
    "capacity": 75,
    "current_cars": 28,
    "occupancy": 0.37
  },
  {
    "street": "Aleja Đure Jelačića",
    "lat": 45.8710407252,
    "lon": 15.8046002602,
    "address_count": 7,
    "capacity": 61,
    "current_cars": 30,
    "occupancy": 0.49
  },
  {
    "street": "Aleja žrtava 1903",
    "lat": 45.8446089888,
    "lon": 15.8136141894,
    "address_count": 4,
    "capacity": 37,
    "current_cars": 20,
    "occupancy": 0.54
  },
  {
    "street": "Alibunarska ulica",
    "lat": 45.8101103207,
    "lon": 15.8884261908,
    "address_count": 2,
    "capacity": 18,
    "current_cars": 14,
    "occupancy": 0.78
  },
  {
    "street": "Aljmaška ulica",
    "lat": 45.8161616217,
    "lon": 16.082751803,
    "address_count": 43,
    "capacity": 66,
    "current_cars": 59,
    "occupancy": 0.89
  },
  {
    "street": "Amerikanska ulica",
    "lat": 45.7150563269,
    "lon": 15.9295165346,
    "address_count": 28,
    "capacity": 65,
    "current_cars": 35,
    "occupancy": 0.54
  },
  {
    "street": "Amerikanski odvojak",
    "lat": 45.7155408836,
    "lon": 15.9262963194,
    "address_count": 4,
    "capacity": 14,
    "current_cars": 9,
    "occupancy": 0.64
  },
  {
    "street": "Andraševečka ulica",
    "lat": 45.8060966363,
    "lon": 15.9413668121,
    "address_count": 27,
    "capacity": 21,
    "current_cars": 12,
    "occupancy": 0.57
  },
  {
    "street": "Andrilovečka ulica",
    "lat": 45.8025265359,
    "lon": 16.0170517219,
    "address_count": 63,
    "capacity": 45,
    "current_cars": 21,
    "occupancy": 0.47
  },
  {
    "street": "Anina grana",
    "lat": 45.7968791791,
    "lon": 15.9244069111,
    "address_count": 7,
    "capacity": 43,
    "current_cars": 20,
    "occupancy": 0.47
  },
  {
    "street": "Anina ulica",
    "lat": 45.7966436449,
    "lon": 15.9258599065,
    "address_count": 107,
    "capacity": 13,
    "current_cars": 6,
    "occupancy": 0.46
  },
  {
    "street": "Anićeva ulica",
    "lat": 45.7747618251,
    "lon": 15.9597053069,
    "address_count": 39,
    "capacity": 57,
    "current_cars": 37,
    "occupancy": 0.65
  },
  {
    "street": "Antolići",
    "lat": 45.9336173833,
    "lon": 15.8042716851,
    "address_count": 12,
    "capacity": 78,
    "current_cars": 55,
    "occupancy": 0.71
  },
  {
    "street": "Antoljaki",
    "lat": 45.8204862292,
    "lon": 15.8974605433,
    "address_count": 10,
    "capacity": 65,
    "current_cars": 21,
    "occupancy": 0.32
  },
  {
    "street": "Antolkovići",
    "lat": 45.903473737,
    "lon": 16.1672967215,
    "address_count": 42,
    "capacity": 42,
    "current_cars": 34,
    "occupancy": 0.81
  },
  {
    "street": "Antolovečki put",
    "lat": 45.8299145405,
    "lon": 16.0673437111,
    "address_count": 15,
    "capacity": 73,
    "current_cars": 56,
    "occupancy": 0.77
  },
  {
    "street": "Antovaljska ulica",
    "lat": 45.82752292,
    "lon": 16.0639741857,
    "address_count": 19,
    "capacity": 44,
    "current_cars": 36,
    "occupancy": 0.82
  },
  {
    "street": "Antunovac",
    "lat": 45.815325898,
    "lon": 15.9477094918,
    "address_count": 74,
    "capacity": 34,
    "current_cars": 32,
    "occupancy": 0.94
  },
  {
    "street": "Apatinska ulica",
    "lat": 45.8121184116,
    "lon": 16.0517943495,
    "address_count": 30,
    "capacity": 41,
    "current_cars": 19,
    "occupancy": 0.46
  },
  {
    "street": "Apatinski odvojak I.",
    "lat": 45.812163999,
    "lon": 16.0535514305,
    "address_count": 6,
    "capacity": 26,
    "current_cars": 14,
    "occupancy": 0.54
  },
  {
    "street": "Apatinski odvojak II.",
    "lat": 45.8114615817,
    "lon": 16.0522092024,
    "address_count": 24,
    "capacity": 36,
    "current_cars": 28,
    "occupancy": 0.78
  },
  {
    "street": "Apatinski odvojak III.",
    "lat": 45.8115739223,
    "lon": 16.0518260395,
    "address_count": 20,
    "capacity": 26,
    "current_cars": 12,
    "occupancy": 0.46
  },
  {
    "street": "Argentinska ulica",
    "lat": 45.8147129629,
    "lon": 15.8759141116,
    "address_count": 5,
    "capacity": 31,
    "current_cars": 17,
    "occupancy": 0.55
  },
  {
    "street": "Arnoldova ulica",
    "lat": 45.8131780998,
    "lon": 15.9654864796,
    "address_count": 3,
    "capacity": 39,
    "current_cars": 21,
    "occupancy": 0.54
  },
  {
    "street": "Artičkova ulica",
    "lat": 45.8191582723,
    "lon": 15.8878929252,
    "address_count": 30,
    "capacity": 52,
    "current_cars": 28,
    "occupancy": 0.54
  },
  {
    "street": "Avenija Dubrovnik",
    "lat": 45.7788602691,
    "lon": 15.9743989693,
    "address_count": 72,
    "capacity": 72,
    "current_cars": 33,
    "occupancy": 0.46
  },
  {
    "street": "Avenija Gojka Šuška",
    "lat": 45.8320977043,
    "lon": 16.0343114174,
    "address_count": 4,
    "capacity": 57,
    "current_cars": 29,
    "occupancy": 0.51
  },
  {
    "street": "Avenija Marina Držića",
    "lat": 45.7963390143,
    "lon": 15.9990773464,
    "address_count": 91,
    "capacity": 31,
    "current_cars": 21,
    "occupancy": 0.68
  },
  {
    "street": "Avenija Većeslava Holjevca",
    "lat": 45.7663530497,
    "lon": 15.9797962775,
    "address_count": 60,
    "capacity": 77,
    "current_cars": 66,
    "occupancy": 0.86
  },
  {
    "street": "Avenija hrvatskih branitelja",
    "lat": 45.8467977302,
    "lon": 15.81300049,
    "address_count": 26,
    "capacity": 49,
    "current_cars": 38,
    "occupancy": 0.78
  },
  {
    "street": "Ašpergeri",
    "lat": 45.6917033531,
    "lon": 15.8310469135,
    "address_count": 33,
    "capacity": 59,
    "current_cars": 44,
    "occupancy": 0.75
  },
  {
    "street": "Ašpergeri odvojak",
    "lat": 45.6891721519,
    "lon": 15.8293822016,
    "address_count": 1,
    "capacity": 27,
    "current_cars": 13,
    "occupancy": 0.48
  },
  {
    "street": "Babinečka ulica",
    "lat": 45.8368754927,
    "lon": 16.0373658414,
    "address_count": 8,
    "capacity": 10,
    "current_cars": 3,
    "occupancy": 0.3
  },
  {
    "street": "Babićev prilaz",
    "lat": 45.8206227485,
    "lon": 16.0274084281,
    "address_count": 5,
    "capacity": 17,
    "current_cars": 9,
    "occupancy": 0.53
  },
  {
    "street": "Babići",
    "lat": 45.7177711436,
    "lon": 15.966295057,
    "address_count": 13,
    "capacity": 74,
    "current_cars": 57,
    "occupancy": 0.77
  },
  {
    "street": "Baboščica",
    "lat": 45.8944361878,
    "lon": 16.0439984692,
    "address_count": 11,
    "capacity": 32,
    "current_cars": 16,
    "occupancy": 0.5
  },
  {
    "street": "Babulek",
    "lat": 45.8323798824,
    "lon": 15.9085204793,
    "address_count": 42,
    "capacity": 54,
    "current_cars": 35,
    "occupancy": 0.65
  },
  {
    "street": "Baburičina ulica",
    "lat": 45.7804530094,
    "lon": 15.9981744162,
    "address_count": 28,
    "capacity": 33,
    "current_cars": 15,
    "occupancy": 0.45
  },
  {
    "street": "Bachova ulica",
    "lat": 45.7909282918,
    "lon": 16.0051105499,
    "address_count": 12,
    "capacity": 74,
    "current_cars": 30,
    "occupancy": 0.41
  },
  {
    "street": "Badelov brijeg",
    "lat": 45.8299972353,
    "lon": 16.1017539862,
    "address_count": 41,
    "capacity": 34,
    "current_cars": 30,
    "occupancy": 0.88
  },
  {
    "street": "Bademovac",
    "lat": 45.8212485827,
    "lon": 15.9354160365,
    "address_count": 35,
    "capacity": 36,
    "current_cars": 24,
    "occupancy": 0.67
  },
  {
    "street": "Badljevinski put",
    "lat": 45.8188318618,
    "lon": 15.9264517879,
    "address_count": 7,
    "capacity": 33,
    "current_cars": 31,
    "occupancy": 0.94
  },
  {
    "street": "Bahlenova ulica",
    "lat": 45.9300029178,
    "lon": 16.1681790521,
    "address_count": 8,
    "capacity": 37,
    "current_cars": 29,
    "occupancy": 0.78
  },
  {
    "street": "Bakaračka ulica",
    "lat": 45.8251643814,
    "lon": 16.0569525379,
    "address_count": 5,
    "capacity": 21,
    "current_cars": 16,
    "occupancy": 0.76
  },
  {
    "street": "Bakarska ulica",
    "lat": 45.7962136599,
    "lon": 15.9445442307,
    "address_count": 23,
    "capacity": 70,
    "current_cars": 31,
    "occupancy": 0.44
  },
  {
    "street": "Bakačeva ulica",
    "lat": 45.8137407937,
    "lon": 15.9784512616,
    "address_count": 7,
    "capacity": 74,
    "current_cars": 42,
    "occupancy": 0.57
  },
  {
    "street": "Balaški",
    "lat": 45.7188060361,
    "lon": 15.9110789854,
    "address_count": 24,
    "capacity": 68,
    "current_cars": 34,
    "occupancy": 0.5
  },
  {
    "street": "Balokovićeva ulica",
    "lat": 45.7790127796,
    "lon": 15.9962240116,
    "address_count": 39,
    "capacity": 69,
    "current_cars": 38,
    "occupancy": 0.55
  },
  {
    "street": "Balotin prilaz",
    "lat": 45.7747543641,
    "lon": 15.9955998307,
    "address_count": 4,
    "capacity": 50,
    "current_cars": 45,
    "occupancy": 0.9
  },
  {
    "street": "Balunov put",
    "lat": 45.8383184133,
    "lon": 15.8885318252,
    "address_count": 15,
    "capacity": 60,
    "current_cars": 42,
    "occupancy": 0.7
  },
  {
    "street": "Balšićeva ulica",
    "lat": 45.9088089842,
    "lon": 16.153567327,
    "address_count": 12,
    "capacity": 53,
    "current_cars": 40,
    "occupancy": 0.75
  },
  {
    "street": "Banatska ulica",
    "lat": 45.8239586408,
    "lon": 16.0439008783,
    "address_count": 52,
    "capacity": 80,
    "current_cars": 70,
    "occupancy": 0.88
  },
  {
    "street": "Banatski odvojak",
    "lat": 45.8226389551,
    "lon": 16.0434721203,
    "address_count": 5,
    "capacity": 74,
    "current_cars": 22,
    "occupancy": 0.3
  },
  {
    "street": "Baneki",
    "lat": 45.7497348124,
    "lon": 15.9916645999,
    "address_count": 14,
    "capacity": 26,
    "current_cars": 11,
    "occupancy": 0.42
  },
  {
    "street": "Bani",
    "lat": 45.7497527261,
    "lon": 15.9987082585,
    "address_count": 84,
    "capacity": 12,
    "current_cars": 10,
    "occupancy": 0.83
  },
  {
    "street": "Bani I. odvojak",
    "lat": 45.7485092465,
    "lon": 15.9998635865,
    "address_count": 3,
    "capacity": 34,
    "current_cars": 31,
    "occupancy": 0.91
  },
  {
    "street": "Bani II. odvojak",
    "lat": 45.7515690461,
    "lon": 15.9985510027,
    "address_count": 8,
    "capacity": 13,
    "current_cars": 7,
    "occupancy": 0.54
  },
  {
    "street": "Banjolska ulica",
    "lat": 45.8224384546,
    "lon": 16.0590131409,
    "address_count": 33,
    "capacity": 36,
    "current_cars": 22,
    "occupancy": 0.61
  },
  {
    "street": "Banjolski odvojak I.",
    "lat": 45.8218477004,
    "lon": 16.0591201573,
    "address_count": 9,
    "capacity": 68,
    "current_cars": 52,
    "occupancy": 0.76
  },
  {
    "street": "Banjolski odvojak II.",
    "lat": 45.8219951716,
    "lon": 16.0595536226,
    "address_count": 10,
    "capacity": 62,
    "current_cars": 33,
    "occupancy": 0.53
  },
  {
    "street": "Banov brijeg",
    "lat": 45.8901755899,
    "lon": 16.1392547747,
    "address_count": 34,
    "capacity": 60,
    "current_cars": 52,
    "occupancy": 0.87
  },
  {
    "street": "Banovićka ulica",
    "lat": 45.8274537582,
    "lon": 16.0399017399,
    "address_count": 62,
    "capacity": 14,
    "current_cars": 11,
    "occupancy": 0.79
  },
  {
    "street": "Banovke",
    "lat": 45.6703677385,
    "lon": 15.8863274095,
    "address_count": 4,
    "capacity": 80,
    "current_cars": 50,
    "occupancy": 0.62
  },
  {
    "street": "Banovski put",
    "lat": 45.8378547971,
    "lon": 15.829448039,
    "address_count": 14,
    "capacity": 51,
    "current_cars": 44,
    "occupancy": 0.86
  },
  {
    "street": "Banska ulica",
    "lat": 45.9285820031,
    "lon": 15.8139547033,
    "address_count": 6,
    "capacity": 39,
    "current_cars": 18,
    "occupancy": 0.46
  },
  {
    "street": "Banski vinogradi",
    "lat": 45.8214226189,
    "lon": 15.8418227001,
    "address_count": 65,
    "capacity": 21,
    "current_cars": 18,
    "occupancy": 0.86
  },
  {
    "street": "Baošićki put",
    "lat": 45.8172487376,
    "lon": 16.0479885548,
    "address_count": 14,
    "capacity": 64,
    "current_cars": 35,
    "occupancy": 0.55
  },
  {
    "street": "Baošički odvojak I.",
    "lat": 45.8168208198,
    "lon": 16.0486002965,
    "address_count": 15,
    "capacity": 64,
    "current_cars": 19,
    "occupancy": 0.3
  },
  {
    "street": "Baošički odvojak II.",
    "lat": 45.8165317055,
    "lon": 16.0482502962,
    "address_count": 18,
    "capacity": 54,
    "current_cars": 46,
    "occupancy": 0.85
  },
  {
    "street": "Baradin prilaz",
    "lat": 45.773686779,
    "lon": 15.9993925779,
    "address_count": 6,
    "capacity": 57,
    "current_cars": 24,
    "occupancy": 0.42
  },
  {
    "street": "Baranjska ulica",
    "lat": 45.7994612065,
    "lon": 16.1220924482,
    "address_count": 25,
    "capacity": 40,
    "current_cars": 29,
    "occupancy": 0.72
  },
  {
    "street": "Baranovićeva ulica",
    "lat": 45.7955269252,
    "lon": 15.8928367363,
    "address_count": 7,
    "capacity": 14,
    "current_cars": 12,
    "occupancy": 0.86
  },
  {
    "street": "Barbatska ulica",
    "lat": 45.8265773119,
    "lon": 16.0566579794,
    "address_count": 24,
    "capacity": 80,
    "current_cars": 32,
    "occupancy": 0.4
  },
  {
    "street": "Barberići",
    "lat": 45.9066405197,
    "lon": 16.1591311117,
    "address_count": 11,
    "capacity": 35,
    "current_cars": 16,
    "occupancy": 0.46
  },
  {
    "street": "Barbiri",
    "lat": 45.9116276207,
    "lon": 16.1013001296,
    "address_count": 10,
    "capacity": 38,
    "current_cars": 15,
    "occupancy": 0.39
  },
  {
    "street": "Bartolići",
    "lat": 45.7849351366,
    "lon": 15.9250855604,
    "address_count": 31,
    "capacity": 57,
    "current_cars": 51,
    "occupancy": 0.89
  },
  {
    "street": "Barunov put",
    "lat": 45.6709872879,
    "lon": 15.8742396759,
    "address_count": 4,
    "capacity": 23,
    "current_cars": 12,
    "occupancy": 0.52
  },
  {
    "street": "Barutanski breg",
    "lat": 45.82794133,
    "lon": 16.0090551453,
    "address_count": 79,
    "capacity": 24,
    "current_cars": 10,
    "occupancy": 0.42
  },
  {
    "street": "Barutanski breg I.",
    "lat": 45.8270195703,
    "lon": 16.0082281869,
    "address_count": 22,
    "capacity": 24,
    "current_cars": 15,
    "occupancy": 0.62
  },
  {
    "street": "Barutanski breg II.",
    "lat": 45.8263396553,
    "lon": 16.0089558988,
    "address_count": 19,
    "capacity": 69,
    "current_cars": 46,
    "occupancy": 0.67
  },
  {
    "street": "Barutanski breg III.",
    "lat": 45.8266826324,
    "lon": 16.0085515854,
    "address_count": 25,
    "capacity": 27,
    "current_cars": 22,
    "occupancy": 0.81
  },
  {
    "street": "Barutanski jarak",
    "lat": 45.8306250443,
    "lon": 16.0050510216,
    "address_count": 172,
    "capacity": 56,
    "current_cars": 19,
    "occupancy": 0.34
  },
  {
    "street": "Barutanski ogranak II.",
    "lat": 45.8259702636,
    "lon": 16.0071956456,
    "address_count": 15,
    "capacity": 17,
    "current_cars": 13,
    "occupancy": 0.76
  },
  {
    "street": "Barutanski ogranak IV.",
    "lat": 45.8265168352,
    "lon": 16.0067040683,
    "address_count": 7,
    "capacity": 20,
    "current_cars": 9,
    "occupancy": 0.45
  },
  {
    "street": "Barutanski ogranak V.",
    "lat": 45.8333947468,
    "lon": 16.0025435699,
    "address_count": 14,
    "capacity": 23,
    "current_cars": 16,
    "occupancy": 0.7
  },
  {
    "street": "Barčev trg",
    "lat": 45.7758876505,
    "lon": 15.9962387166,
    "address_count": 17,
    "capacity": 35,
    "current_cars": 22,
    "occupancy": 0.63
  },
  {
    "street": "Baršići",
    "lat": 45.8471743742,
    "lon": 16.0332989004,
    "address_count": 8,
    "capacity": 32,
    "current_cars": 20,
    "occupancy": 0.62
  },
  {
    "street": "Bastajski put",
    "lat": 45.7980217024,
    "lon": 15.915024868,
    "address_count": 17,
    "capacity": 54,
    "current_cars": 30,
    "occupancy": 0.56
  },
  {
    "street": "Bastalićeva ulica I.",
    "lat": 45.9176060651,
    "lon": 16.1675679018,
    "address_count": 9,
    "capacity": 49,
    "current_cars": 15,
    "occupancy": 0.31
  },
  {
    "street": "Bastalićeva ulica II.",
    "lat": 45.9226983415,
    "lon": 16.1640073704,
    "address_count": 31,
    "capacity": 51,
    "current_cars": 44,
    "occupancy": 0.86
  },
  {
    "street": "Bataljon Matije Gupca",
    "lat": 45.893630096,
    "lon": 15.7541967297,
    "address_count": 13,
    "capacity": 20,
    "current_cars": 13,
    "occupancy": 0.65
  },
  {
    "street": "Batinovačka ulica",
    "lat": 45.8176917373,
    "lon": 15.8820577516,
    "address_count": 32,
    "capacity": 15,
    "current_cars": 8,
    "occupancy": 0.53
  },
  {
    "street": "Bazarotova ulica",
    "lat": 45.9171674004,
    "lon": 16.1400964335,
    "address_count": 4,
    "capacity": 42,
    "current_cars": 25,
    "occupancy": 0.6
  },
  {
    "street": "Bačka ulica",
    "lat": 45.8245129966,
    "lon": 16.0449290406,
    "address_count": 52,
    "capacity": 18,
    "current_cars": 11,
    "occupancy": 0.61
  },
  {
    "street": "Bački odvojak",
    "lat": 45.8237502987,
    "lon": 16.0461220747,
    "address_count": 18,
    "capacity": 43,
    "current_cars": 30,
    "occupancy": 0.7
  },
  {
    "street": "Bačun",
    "lat": 45.8695572267,
    "lon": 15.9962937103,
    "address_count": 46,
    "capacity": 69,
    "current_cars": 53,
    "occupancy": 0.77
  },
  {
    "street": "Bačunski krč",
    "lat": 45.8645341694,
    "lon": 16.0005544569,
    "address_count": 46,
    "capacity": 23,
    "current_cars": 19,
    "occupancy": 0.83
  },
  {
    "street": "Bačurina ulica",
    "lat": 45.7593742534,
    "lon": 15.9138980775,
    "address_count": 4,
    "capacity": 40,
    "current_cars": 22,
    "occupancy": 0.55
  },
  {
    "street": "Bačurini",
    "lat": 45.7310194686,
    "lon": 16.0057975738,
    "address_count": 2,
    "capacity": 44,
    "current_cars": 30,
    "occupancy": 0.68
  },
  {
    "street": "Bašćanska ulica",
    "lat": 45.7961416066,
    "lon": 15.9453917863,
    "address_count": 12,
    "capacity": 65,
    "current_cars": 31,
    "occupancy": 0.48
  },
  {
    "street": "Bebrinečki put",
    "lat": 45.8058613556,
    "lon": 15.9146424792,
    "address_count": 2,
    "capacity": 70,
    "current_cars": 23,
    "occupancy": 0.33
  },
  {
    "street": "Bedeki",
    "lat": 45.7356088805,
    "lon": 15.8865745777,
    "address_count": 26,
    "capacity": 42,
    "current_cars": 14,
    "occupancy": 0.33
  },
  {
    "street": "Bedeniki",
    "lat": 45.8293372219,
    "lon": 15.8477222776,
    "address_count": 14,
    "capacity": 75,
    "current_cars": 34,
    "occupancy": 0.45
  },
  {
    "street": "Bedenikova ulica",
    "lat": 45.9101233424,
    "lon": 15.804981643,
    "address_count": 5,
    "capacity": 39,
    "current_cars": 34,
    "occupancy": 0.87
  },
  {
    "street": "Bedenički put",
    "lat": 45.817020927,
    "lon": 16.0543278551,
    "address_count": 19,
    "capacity": 70,
    "current_cars": 33,
    "occupancy": 0.47
  },
  {
    "street": "Bednjanska ulica",
    "lat": 45.8028350642,
    "lon": 15.9721105521,
    "address_count": 19,
    "capacity": 56,
    "current_cars": 48,
    "occupancy": 0.86
  },
  {
    "street": "Beethovenova ulica",
    "lat": 45.7941701154,
    "lon": 15.9036617742,
    "address_count": 11,
    "capacity": 74,
    "current_cars": 62,
    "occupancy": 0.84
  },
  {
    "street": "Begovačka ulica",
    "lat": 45.8095571573,
    "lon": 15.9025905985,
    "address_count": 15,
    "capacity": 57,
    "current_cars": 33,
    "occupancy": 0.58
  },
  {
    "street": "Beketinačka ulica",
    "lat": 45.8195829486,
    "lon": 16.049321648,
    "address_count": 4,
    "capacity": 73,
    "current_cars": 49,
    "occupancy": 0.67
  },
  {
    "street": "Belejska ulica",
    "lat": 45.8285806319,
    "lon": 16.0574100268,
    "address_count": 5,
    "capacity": 77,
    "current_cars": 34,
    "occupancy": 0.44
  },
  {
    "street": "Belečka ulica",
    "lat": 45.8179458486,
    "lon": 16.0875865854,
    "address_count": 32,
    "capacity": 37,
    "current_cars": 19,
    "occupancy": 0.51
  },
  {
    "street": "Belinin odvojak",
    "lat": 45.8262293435,
    "lon": 15.8868028837,
    "address_count": 7,
    "capacity": 51,
    "current_cars": 40,
    "occupancy": 0.78
  },
  {
    "street": "Belinin put",
    "lat": 45.8275884398,
    "lon": 15.8884524056,
    "address_count": 26,
    "capacity": 66,
    "current_cars": 46,
    "occupancy": 0.7
  },
  {
    "street": "Belišćanska ulica",
    "lat": 45.8230649407,
    "lon": 16.0557591111,
    "address_count": 40,
    "capacity": 56,
    "current_cars": 23,
    "occupancy": 0.41
  },
  {
    "street": "Belišćanski odvojak I.",
    "lat": 45.82251264,
    "lon": 16.0549586098,
    "address_count": 11,
    "capacity": 19,
    "current_cars": 8,
    "occupancy": 0.42
  },
  {
    "street": "Belišćanski odvojak II.",
    "lat": 45.8226823074,
    "lon": 16.0554075256,
    "address_count": 8,
    "capacity": 47,
    "current_cars": 33,
    "occupancy": 0.7
  },
  {
    "street": "Beljačka ulica",
    "lat": 45.8394388306,
    "lon": 16.0476224223,
    "address_count": 6,
    "capacity": 14,
    "current_cars": 11,
    "occupancy": 0.79
  },
  {
    "street": "Beljska ulica",
    "lat": 45.8190884504,
    "lon": 16.0498271653,
    "address_count": 3,
    "capacity": 36,
    "current_cars": 27,
    "occupancy": 0.75
  },
  {
    "street": "Belomanastirska ulica",
    "lat": 45.8247064732,
    "lon": 16.0414941514,
    "address_count": 11,
    "capacity": 40,
    "current_cars": 35,
    "occupancy": 0.88
  },
  {
    "street": "Beloslavečka ulica",
    "lat": 45.8394568646,
    "lon": 16.0365093211,
    "address_count": 5,
    "capacity": 80,
    "current_cars": 71,
    "occupancy": 0.89
  },
  {
    "street": "Belčina I.",
    "lat": 45.8360376008,
    "lon": 15.9308777491,
    "address_count": 17,
    "capacity": 60,
    "current_cars": 42,
    "occupancy": 0.7
  },
  {
    "street": "Belčina II.",
    "lat": 45.8355474586,
    "lon": 15.93038233,
    "address_count": 12,
    "capacity": 68,
    "current_cars": 52,
    "occupancy": 0.76
  },
  {
    "street": "Benešićeva ulica",
    "lat": 45.7907299695,
    "lon": 16.0067992076,
    "address_count": 21,
    "capacity": 56,
    "current_cars": 26,
    "occupancy": 0.46
  },
  {
    "street": "Bengezi",
    "lat": 45.8300909491,
    "lon": 15.8485302969,
    "address_count": 16,
    "capacity": 36,
    "current_cars": 12,
    "occupancy": 0.33
  },
  {
    "street": "Benkov put",
    "lat": 45.8577684128,
    "lon": 15.9556300605,
    "address_count": 15,
    "capacity": 44,
    "current_cars": 38,
    "occupancy": 0.86
  },
  {
    "street": "Benkova ulica",
    "lat": 45.9386772183,
    "lon": 16.169538795,
    "address_count": 20,
    "capacity": 53,
    "current_cars": 41,
    "occupancy": 0.77
  },
  {
    "street": "Benkovačka ulica",
    "lat": 45.7932263838,
    "lon": 15.9421561499,
    "address_count": 10,
    "capacity": 18,
    "current_cars": 14,
    "occupancy": 0.78
  },
  {
    "street": "Benkovićeva ulica",
    "lat": 45.8218681535,
    "lon": 16.0106373864,
    "address_count": 7,
    "capacity": 53,
    "current_cars": 27,
    "occupancy": 0.51
  },
  {
    "street": "Benkošćica",
    "lat": 45.9317647853,
    "lon": 16.1306065197,
    "address_count": 33,
    "capacity": 35,
    "current_cars": 15,
    "occupancy": 0.43
  },
  {
    "street": "Benčakov dol",
    "lat": 45.8642917085,
    "lon": 16.0849088015,
    "address_count": 10,
    "capacity": 73,
    "current_cars": 32,
    "occupancy": 0.44
  },
  {
    "street": "Beramska ulica",
    "lat": 45.8086761738,
    "lon": 16.0435139151,
    "address_count": 6,
    "capacity": 47,
    "current_cars": 27,
    "occupancy": 0.57
  },
  {
    "street": "Berečka ulica",
    "lat": 45.8230016923,
    "lon": 16.0482657062,
    "address_count": 5,
    "capacity": 32,
    "current_cars": 12,
    "occupancy": 0.38
  },
  {
    "street": "Berislavićeva ulica",
    "lat": 45.8104112404,
    "lon": 15.9757788377,
    "address_count": 30,
    "capacity": 22,
    "current_cars": 8,
    "occupancy": 0.36
  },
  {
    "street": "Bersečka ulica",
    "lat": 45.8019136614,
    "lon": 15.9372521986,
    "address_count": 23,
    "capacity": 59,
    "current_cars": 23,
    "occupancy": 0.39
  },
  {
    "street": "Betinska ulica",
    "lat": 45.735559123,
    "lon": 16.0123679896,
    "address_count": 3,
    "capacity": 55,
    "current_cars": 28,
    "occupancy": 0.51
  },
  {
    "street": "Bezdanska ulica",
    "lat": 45.7936905836,
    "lon": 15.8957239292,
    "address_count": 63,
    "capacity": 75,
    "current_cars": 67,
    "occupancy": 0.89
  },
  {
    "street": "Bezgovec",
    "lat": 45.837530294,
    "lon": 16.0050102221,
    "address_count": 3,
    "capacity": 80,
    "current_cars": 72,
    "occupancy": 0.9
  },
  {
    "street": "Beđićev odvojak",
    "lat": 45.8625475133,
    "lon": 16.034709438,
    "address_count": 16,
    "capacity": 39,
    "current_cars": 34,
    "occupancy": 0.87
  },
  {
    "street": "Beđići",
    "lat": 45.8616491899,
    "lon": 16.0359484074,
    "address_count": 66,
    "capacity": 35,
    "current_cars": 17,
    "occupancy": 0.49
  },
  {
    "street": "Bešići",
    "lat": 45.8623566927,
    "lon": 15.9912878536,
    "address_count": 47,
    "capacity": 57,
    "current_cars": 25,
    "occupancy": 0.44
  },
  {
    "street": "Beštaki",
    "lat": 45.9022669817,
    "lon": 16.1558097928,
    "address_count": 32,
    "capacity": 62,
    "current_cars": 19,
    "occupancy": 0.31
  },
  {
    "street": "Bibekov breg",
    "lat": 45.8726224031,
    "lon": 16.0051121977,
    "address_count": 18,
    "capacity": 65,
    "current_cars": 26,
    "occupancy": 0.4
  },
  {
    "street": "Bibinjska ulica",
    "lat": 45.7365924299,
    "lon": 16.011328969,
    "address_count": 11,
    "capacity": 27,
    "current_cars": 22,
    "occupancy": 0.81
  },
  {
    "street": "Bidrovečka cesta",
    "lat": 45.8920357806,
    "lon": 16.0285747169,
    "address_count": 53,
    "capacity": 34,
    "current_cars": 28,
    "occupancy": 0.82
  },
  {
    "street": "Bihaćka ulica",
    "lat": 45.8164825993,
    "lon": 16.1797454524,
    "address_count": 21,
    "capacity": 23,
    "current_cars": 13,
    "occupancy": 0.57
  },
  {
    "street": "Bijeljavina",
    "lat": 45.8749191396,
    "lon": 16.0110744313,
    "address_count": 8,
    "capacity": 38,
    "current_cars": 30,
    "occupancy": 0.79
  },
  {
    "street": "Bijeljinska ulica",
    "lat": 45.7971509195,
    "lon": 15.9270944276,
    "address_count": 33,
    "capacity": 45,
    "current_cars": 40,
    "occupancy": 0.89
  },
  {
    "street": "Bijenik",
    "lat": 45.8397314905,
    "lon": 15.9366334806,
    "address_count": 186,
    "capacity": 35,
    "current_cars": 25,
    "occupancy": 0.71
  },
  {
    "street": "Bijenik mali",
    "lat": 45.8355132296,
    "lon": 15.9348104905,
    "address_count": 29,
    "capacity": 59,
    "current_cars": 23,
    "occupancy": 0.39
  },
  {
    "street": "Bijenička cesta",
    "lat": 45.8293466919,
    "lon": 15.9896657032,
    "address_count": 118,
    "capacity": 12,
    "current_cars": 5,
    "occupancy": 0.42
  },
  {
    "street": "Bijenički goljak",
    "lat": 45.8467490663,
    "lon": 15.9375113729,
    "address_count": 4,
    "capacity": 46,
    "current_cars": 16,
    "occupancy": 0.35
  },
  {
    "street": "Bijenički ogranak I.",
    "lat": 45.8325332302,
    "lon": 15.998849169,
    "address_count": 10,
    "capacity": 62,
    "current_cars": 20,
    "occupancy": 0.32
  },
  {
    "street": "Bijenički ogranak II.",
    "lat": 45.8323886771,
    "lon": 15.9983208227,
    "address_count": 4,
    "capacity": 26,
    "current_cars": 16,
    "occupancy": 0.62
  },
  {
    "street": "Bijenički ogranak III.",
    "lat": 45.8321272066,
    "lon": 15.9906584562,
    "address_count": 20,
    "capacity": 72,
    "current_cars": 36,
    "occupancy": 0.5
  },
  {
    "street": "Bilajska ulica",
    "lat": 45.7952178442,
    "lon": 15.9444678833,
    "address_count": 7,
    "capacity": 25,
    "current_cars": 21,
    "occupancy": 0.84
  },
  {
    "street": "Biljanska ulica",
    "lat": 45.7443650675,
    "lon": 15.8864324192,
    "address_count": 20,
    "capacity": 44,
    "current_cars": 15,
    "occupancy": 0.34
  },
  {
    "street": "Biljevinska ulica",
    "lat": 45.8240262603,
    "lon": 16.0589519397,
    "address_count": 3,
    "capacity": 25,
    "current_cars": 12,
    "occupancy": 0.48
  },
  {
    "street": "Bilogorska ulica",
    "lat": 45.7989139203,
    "lon": 16.0917752721,
    "address_count": 77,
    "capacity": 47,
    "current_cars": 41,
    "occupancy": 0.87
  },
  {
    "street": "Biokovska ulica",
    "lat": 45.8049395264,
    "lon": 15.9254421641,
    "address_count": 35,
    "capacity": 80,
    "current_cars": 55,
    "occupancy": 0.69
  },
  {
    "street": "Biokovske stube",
    "lat": 45.844032591,
    "lon": 15.9707919645,
    "address_count": 8,
    "capacity": 14,
    "current_cars": 9,
    "occupancy": 0.64
  },
  {
    "street": "Bisačka ulica",
    "lat": 45.804305205,
    "lon": 15.9531319873,
    "address_count": 15,
    "capacity": 58,
    "current_cars": 39,
    "occupancy": 0.67
  },
  {
    "street": "Bistranska ulica",
    "lat": 45.835403847,
    "lon": 15.8660927602,
    "address_count": 59,
    "capacity": 25,
    "current_cars": 20,
    "occupancy": 0.8
  },
  {
    "street": "Bistrička ulica",
    "lat": 45.8192640695,
    "lon": 16.0398938022,
    "address_count": 22,
    "capacity": 31,
    "current_cars": 9,
    "occupancy": 0.29
  },
  {
    "street": "Bitoljska ulica",
    "lat": 45.8088626899,
    "lon": 15.918615146,
    "address_count": 44,
    "capacity": 56,
    "current_cars": 21,
    "occupancy": 0.38
  },
  {
    "street": "Bitorajska ulica",
    "lat": 45.8459574578,
    "lon": 15.9619680272,
    "address_count": 11,
    "capacity": 44,
    "current_cars": 13,
    "occupancy": 0.3
  },
  {
    "street": "Bizek I.",
    "lat": 45.8259450676,
    "lon": 15.8564443721,
    "address_count": 28,
    "capacity": 15,
    "current_cars": 11,
    "occupancy": 0.73
  },
  {
    "street": "Bizek I. - I. odvojak",
    "lat": 45.8238472571,
    "lon": 15.8564550867,
    "address_count": 5,
    "capacity": 45,
    "current_cars": 29,
    "occupancy": 0.64
  },
  {
    "street": "Bizek I. - II. odvojak",
    "lat": 45.8262315152,
    "lon": 15.8561538238,
    "address_count": 6,
    "capacity": 61,
    "current_cars": 26,
    "occupancy": 0.43
  },
  {
    "street": "Bizek II.",
    "lat": 45.8300034454,
    "lon": 15.856984612,
    "address_count": 77,
    "capacity": 20,
    "current_cars": 17,
    "occupancy": 0.85
  },
  {
    "street": "Bizek III.",
    "lat": 45.8309024707,
    "lon": 15.8602737697,
    "address_count": 51,
    "capacity": 26,
    "current_cars": 14,
    "occupancy": 0.54
  },
  {
    "street": "Bizek IV.",
    "lat": 45.8317693584,
    "lon": 15.8617855454,
    "address_count": 25,
    "capacity": 56,
    "current_cars": 31,
    "occupancy": 0.55
  },
  {
    "street": "Bizek V.",
    "lat": 45.8336164917,
    "lon": 15.8583227792,
    "address_count": 8,
    "capacity": 24,
    "current_cars": 17,
    "occupancy": 0.71
  },
  {
    "street": "Bizek VI.",
    "lat": 45.8296577765,
    "lon": 15.8591422964,
    "address_count": 20,
    "capacity": 16,
    "current_cars": 5,
    "occupancy": 0.31
  },
  {
    "street": "Bizovačka ulica",
    "lat": 45.8199364064,
    "lon": 16.0452389045,
    "address_count": 18,
    "capacity": 28,
    "current_cars": 18,
    "occupancy": 0.64
  },
  {
    "street": "Biševska ulica",
    "lat": 45.7402351474,
    "lon": 16.0163592141,
    "address_count": 20,
    "capacity": 23,
    "current_cars": 8,
    "occupancy": 0.35
  },
  {
    "street": "Biškupec breg",
    "lat": 45.856392997,
    "lon": 15.9842453603,
    "address_count": 24,
    "capacity": 15,
    "current_cars": 10,
    "occupancy": 0.67
  },
  {
    "street": "Biškupići",
    "lat": 45.7796926171,
    "lon": 15.8396192502,
    "address_count": 14,
    "capacity": 34,
    "current_cars": 11,
    "occupancy": 0.32
  },
  {
    "street": "Bišćanov put",
    "lat": 45.8230002808,
    "lon": 15.8795513995,
    "address_count": 33,
    "capacity": 53,
    "current_cars": 37,
    "occupancy": 0.7
  },
  {
    "street": "Bjelašnička ulica",
    "lat": 45.8361046136,
    "lon": 16.0370489704,
    "address_count": 10,
    "capacity": 67,
    "current_cars": 42,
    "occupancy": 0.63
  },
  {
    "street": "Bjelevina",
    "lat": 45.8528518118,
    "lon": 15.9465500347,
    "address_count": 17,
    "capacity": 71,
    "current_cars": 58,
    "occupancy": 0.82
  },
  {
    "street": "Bjelolasička ulica",
    "lat": 45.8456843252,
    "lon": 15.966055908,
    "address_count": 14,
    "capacity": 68,
    "current_cars": 64,
    "occupancy": 0.94
  },
  {
    "street": "Bjelovarska ulica",
    "lat": 45.8211681773,
    "lon": 16.0949537423,
    "address_count": 139,
    "capacity": 55,
    "current_cars": 33,
    "occupancy": 0.6
  },
  {
    "street": "Blagajska ulica",
    "lat": 45.7950625907,
    "lon": 15.9456950628,
    "address_count": 45,
    "capacity": 11,
    "current_cars": 8,
    "occupancy": 0.73
  },
  {
    "street": "Blaguška cesta",
    "lat": 45.9077505242,
    "lon": 16.1311972219,
    "address_count": 16,
    "capacity": 70,
    "current_cars": 49,
    "occupancy": 0.7
  },
  {
    "street": "Blaguška ulica",
    "lat": 45.9270479887,
    "lon": 16.131682672,
    "address_count": 106,
    "capacity": 72,
    "current_cars": 51,
    "occupancy": 0.71
  },
  {
    "street": "Blanje",
    "lat": 45.81682035,
    "lon": 15.8424129969,
    "address_count": 79,
    "capacity": 75,
    "current_cars": 49,
    "occupancy": 0.65
  },
  {
    "street": "Blatnička ulica",
    "lat": 45.7936522247,
    "lon": 15.984966473,
    "address_count": 11,
    "capacity": 78,
    "current_cars": 58,
    "occupancy": 0.74
  },
  {
    "street": "Blažerova ulica",
    "lat": 45.9074945397,
    "lon": 16.1648717212,
    "address_count": 2,
    "capacity": 68,
    "current_cars": 34,
    "occupancy": 0.5
  },
  {
    "street": "Blaževdolska ulica",
    "lat": 45.8393667034,
    "lon": 16.0406043345,
    "address_count": 17,
    "capacity": 27,
    "current_cars": 25,
    "occupancy": 0.93
  },
  {
    "street": "Blažinov breg",
    "lat": 45.6318876882,
    "lon": 15.9223194987,
    "address_count": 4,
    "capacity": 45,
    "current_cars": 29,
    "occupancy": 0.64
  },
  {
    "street": "Blažuni",
    "lat": 45.8650923632,
    "lon": 16.0366393157,
    "address_count": 12,
    "capacity": 69,
    "current_cars": 55,
    "occupancy": 0.8
  },
  {
    "street": "Blažunov brijeg",
    "lat": 45.8567217824,
    "lon": 16.0350293681,
    "address_count": 12,
    "capacity": 32,
    "current_cars": 21,
    "occupancy": 0.66
  },
  {
    "street": "Blažurčeva ulica",
    "lat": 45.8500303091,
    "lon": 16.1687248905,
    "address_count": 9,
    "capacity": 69,
    "current_cars": 62,
    "occupancy": 0.9
  },
  {
    "street": "Bledska ulica",
    "lat": 45.8083162261,
    "lon": 15.9277004248,
    "address_count": 27,
    "capacity": 77,
    "current_cars": 38,
    "occupancy": 0.49
  },
  {
    "street": "Bledski odvojak",
    "lat": 45.8079295319,
    "lon": 15.9279567762,
    "address_count": 5,
    "capacity": 40,
    "current_cars": 24,
    "occupancy": 0.6
  },
  {
    "street": "Bleiweisova ulica",
    "lat": 45.8105002442,
    "lon": 15.9499995771,
    "address_count": 21,
    "capacity": 31,
    "current_cars": 28,
    "occupancy": 0.9
  },
  {
    "street": "Bliznec",
    "lat": 45.8648574972,
    "lon": 15.9838832318,
    "address_count": 61,
    "capacity": 58,
    "current_cars": 50,
    "occupancy": 0.86
  },
  {
    "street": "Blizno",
    "lat": 45.8555030731,
    "lon": 16.0310341836,
    "address_count": 26,
    "capacity": 79,
    "current_cars": 49,
    "occupancy": 0.62
  },
  {
    "street": "Bobarski put",
    "lat": 45.8226183994,
    "lon": 15.9280668823,
    "address_count": 26,
    "capacity": 38,
    "current_cars": 23,
    "occupancy": 0.61
  },
  {
    "street": "Bobovačka ulica",
    "lat": 45.7963807684,
    "lon": 15.9524913216,
    "address_count": 12,
    "capacity": 30,
    "current_cars": 16,
    "occupancy": 0.53
  },
  {
    "street": "Bogatinska ulica",
    "lat": 45.8170968473,
    "lon": 15.8703178385,
    "address_count": 8,
    "capacity": 28,
    "current_cars": 20,
    "occupancy": 0.71
  },
  {
    "street": "Bogdanovačka ulica",
    "lat": 45.8214344764,
    "lon": 16.0510786326,
    "address_count": 17,
    "capacity": 79,
    "current_cars": 27,
    "occupancy": 0.34
  },
  {
    "street": "Bogovićeva ulica",
    "lat": 45.8120908724,
    "lon": 15.975354228,
    "address_count": 12,
    "capacity": 19,
    "current_cars": 9,
    "occupancy": 0.47
  },
  {
    "street": "Bohinjska ulica",
    "lat": 45.8081798757,
    "lon": 15.9285033326,
    "address_count": 18,
    "capacity": 37,
    "current_cars": 27,
    "occupancy": 0.73
  },
  {
    "street": "Bojničićeva ulica",
    "lat": 45.8381677149,
    "lon": 16.2046659882,
    "address_count": 9,
    "capacity": 56,
    "current_cars": 47,
    "occupancy": 0.84
  },
  {
    "street": "Bokanjščica",
    "lat": 45.9055525053,
    "lon": 16.0481729194,
    "address_count": 19,
    "capacity": 50,
    "current_cars": 22,
    "occupancy": 0.44
  },
  {
    "street": "Bolfani",
    "lat": 45.8371638638,
    "lon": 15.891272303,
    "address_count": 20,
    "capacity": 20,
    "current_cars": 7,
    "occupancy": 0.35
  },
  {
    "street": "Bolmanska ulica",
    "lat": 45.8171788617,
    "lon": 15.9366940091,
    "address_count": 7,
    "capacity": 15,
    "current_cars": 4,
    "occupancy": 0.27
  },
  {
    "street": "Bolnička cesta",
    "lat": 45.8159780388,
    "lon": 15.8946431559,
    "address_count": 176,
    "capacity": 20,
    "current_cars": 16,
    "occupancy": 0.8
  },
  {
    "street": "Bolteki",
    "lat": 45.8565859515,
    "lon": 15.9551806089,
    "address_count": 19,
    "capacity": 63,
    "current_cars": 50,
    "occupancy": 0.79
  },
  {
    "street": "Borik",
    "lat": 45.8309907583,
    "lon": 15.9956547029,
    "address_count": 6,
    "capacity": 19,
    "current_cars": 12,
    "occupancy": 0.63
  },
  {
    "street": "Boričevec",
    "lat": 45.8454397356,
    "lon": 15.926290009,
    "address_count": 9,
    "capacity": 66,
    "current_cars": 34,
    "occupancy": 0.52
  },
  {
    "street": "Borje",
    "lat": 45.8467278343,
    "lon": 15.9387470666,
    "address_count": 20,
    "capacity": 68,
    "current_cars": 49,
    "occupancy": 0.72
  },
  {
    "street": "Borkovečka ulica",
    "lat": 45.838313288,
    "lon": 16.0386167544,
    "address_count": 8,
    "capacity": 57,
    "current_cars": 24,
    "occupancy": 0.42
  },
  {
    "street": "Borongaj aerodrom",
    "lat": 45.8105214384,
    "lon": 16.026887969,
    "address_count": 27,
    "capacity": 44,
    "current_cars": 18,
    "occupancy": 0.41
  },
  {
    "street": "Borongajska cesta",
    "lat": 45.811248591,
    "lon": 16.0256793492,
    "address_count": 84,
    "capacity": 10,
    "current_cars": 7,
    "occupancy": 0.7
  },
  {
    "street": "Borongajski lug",
    "lat": 45.8074834006,
    "lon": 16.0395412003,
    "address_count": 23,
    "capacity": 40,
    "current_cars": 22,
    "occupancy": 0.55
  },
  {
    "street": "Borovci",
    "lat": 45.7819717987,
    "lon": 15.9297515566,
    "address_count": 31,
    "capacity": 69,
    "current_cars": 42,
    "occupancy": 0.61
  },
  {
    "street": "Borovik",
    "lat": 45.7645274926,
    "lon": 15.8899678462,
    "address_count": 27,
    "capacity": 57,
    "current_cars": 24,
    "occupancy": 0.42
  },
  {
    "street": "Borovina",
    "lat": 45.8776226197,
    "lon": 15.9695079655,
    "address_count": 58,
    "capacity": 46,
    "current_cars": 36,
    "occupancy": 0.78
  },
  {
    "street": "Borovčica",
    "lat": 45.817596319,
    "lon": 16.008186603,
    "address_count": 13,
    "capacity": 63,
    "current_cars": 28,
    "occupancy": 0.44
  },
  {
    "street": "Borošaki",
    "lat": 45.9572053813,
    "lon": 15.7743684902,
    "address_count": 5,
    "capacity": 70,
    "current_cars": 33,
    "occupancy": 0.47
  },
  {
    "street": "Borska ulica",
    "lat": 45.9160795721,
    "lon": 16.1219797013,
    "address_count": 7,
    "capacity": 61,
    "current_cars": 52,
    "occupancy": 0.85
  },
  {
    "street": "Borčec",
    "lat": 45.8332625299,
    "lon": 15.8824781868,
    "address_count": 90,
    "capacity": 28,
    "current_cars": 9,
    "occupancy": 0.32
  },
  {
    "street": "Boršćakova ulica",
    "lat": 45.9275212602,
    "lon": 16.1320894046,
    "address_count": 8,
    "capacity": 76,
    "current_cars": 30,
    "occupancy": 0.39
  },
  {
    "street": "Bosanska ulica",
    "lat": 45.8297651482,
    "lon": 16.015230427,
    "address_count": 88,
    "capacity": 41,
    "current_cars": 36,
    "occupancy": 0.88
  },
  {
    "street": "Boscova ulica",
    "lat": 45.9360060075,
    "lon": 16.0827061299,
    "address_count": 4,
    "capacity": 65,
    "current_cars": 26,
    "occupancy": 0.4
  },
  {
    "street": "Bosiljevska ulica",
    "lat": 45.7986167149,
    "lon": 15.9453142784,
    "address_count": 58,
    "capacity": 53,
    "current_cars": 47,
    "occupancy": 0.89
  },
  {
    "street": "Bosutska ulica",
    "lat": 45.7971535076,
    "lon": 15.9822883483,
    "address_count": 64,
    "capacity": 35,
    "current_cars": 15,
    "occupancy": 0.43
  },
  {
    "street": "Botinečka ulica",
    "lat": 45.7543491624,
    "lon": 15.9344740932,
    "address_count": 62,
    "capacity": 13,
    "current_cars": 12,
    "occupancy": 0.92
  },
  {
    "street": "Botinečke dužice",
    "lat": 45.7540387878,
    "lon": 15.9323525112,
    "address_count": 20,
    "capacity": 38,
    "current_cars": 18,
    "occupancy": 0.47
  },
  {
    "street": "Botinečki kuti",
    "lat": 45.7544708201,
    "lon": 15.9327130727,
    "address_count": 20,
    "capacity": 36,
    "current_cars": 14,
    "occupancy": 0.39
  },
  {
    "street": "Botrena steza",
    "lat": 45.6332218252,
    "lon": 15.9369352949,
    "address_count": 15,
    "capacity": 51,
    "current_cars": 20,
    "occupancy": 0.39
  },
  {
    "street": "Bočačka ulica",
    "lat": 45.7971003516,
    "lon": 15.9518927283,
    "address_count": 28,
    "capacity": 18,
    "current_cars": 14,
    "occupancy": 0.78
  },
  {
    "street": "Boškovićeva ulica",
    "lat": 45.8096687255,
    "lon": 15.9815781902,
    "address_count": 31,
    "capacity": 17,
    "current_cars": 12,
    "occupancy": 0.71
  },
  {
    "street": "Božavska ulica",
    "lat": 45.7938436764,
    "lon": 15.9253483756,
    "address_count": 3,
    "capacity": 79,
    "current_cars": 67,
    "occupancy": 0.85
  },
  {
    "street": "Božidarevićeva ulica",
    "lat": 45.8206781284,
    "lon": 16.0096734386,
    "address_count": 24,
    "capacity": 24,
    "current_cars": 11,
    "occupancy": 0.46
  },
  {
    "street": "Božinčak",
    "lat": 45.8518143169,
    "lon": 15.9420730087,
    "address_count": 7,
    "capacity": 36,
    "current_cars": 34,
    "occupancy": 0.94
  },
  {
    "street": "Božjakovinska ulica",
    "lat": 45.8318553584,
    "lon": 16.0680914531,
    "address_count": 28,
    "capacity": 51,
    "current_cars": 38,
    "occupancy": 0.75
  },
  {
    "street": "Bradovec",
    "lat": 45.8257453395,
    "lon": 15.9064244345,
    "address_count": 9,
    "capacity": 60,
    "current_cars": 49,
    "occupancy": 0.82
  },
  {
    "street": "Branjevinski put",
    "lat": 45.8028788397,
    "lon": 15.9166614286,
    "address_count": 21,
    "capacity": 60,
    "current_cars": 27,
    "occupancy": 0.45
  },
  {
    "street": "Branovečina",
    "lat": 45.8453849289,
    "lon": 16.0775045587,
    "address_count": 187,
    "capacity": 37,
    "current_cars": 26,
    "occupancy": 0.7
  },
  {
    "street": "Branovečka cesta",
    "lat": 45.8666814246,
    "lon": 16.0759425259,
    "address_count": 241,
    "capacity": 31,
    "current_cars": 27,
    "occupancy": 0.87
  },
  {
    "street": "Bratovština",
    "lat": 45.8118935262,
    "lon": 16.0525648035,
    "address_count": 7,
    "capacity": 36,
    "current_cars": 23,
    "occupancy": 0.64
  },
  {
    "street": "Brazilska ulica",
    "lat": 45.8184692108,
    "lon": 15.8741327716,
    "address_count": 11,
    "capacity": 61,
    "current_cars": 19,
    "occupancy": 0.31
  },
  {
    "street": "Bračka ulica",
    "lat": 45.7417039655,
    "lon": 16.0189982742,
    "address_count": 15,
    "capacity": 23,
    "current_cars": 8,
    "occupancy": 0.35
  },
  {
    "street": "Bračunova ulica",
    "lat": 45.8157919015,
    "lon": 15.9352480253,
    "address_count": 21,
    "capacity": 19,
    "current_cars": 6,
    "occupancy": 0.32
  },
  {
    "street": "Brckovljanska ulica",
    "lat": 45.8131029157,
    "lon": 16.0268995926,
    "address_count": 10,
    "capacity": 49,
    "current_cars": 37,
    "occupancy": 0.76
  },
  {
    "street": "Brdovečka ulica",
    "lat": 45.8394338588,
    "lon": 15.8599017982,
    "address_count": 52,
    "capacity": 25,
    "current_cars": 17,
    "occupancy": 0.68
  },
  {
    "street": "Brebernička cesta",
    "lat": 45.6669026727,
    "lon": 15.8914378524,
    "address_count": 24,
    "capacity": 72,
    "current_cars": 24,
    "occupancy": 0.33
  },
  {
    "street": "Brebernički brijeg",
    "lat": 45.6693132152,
    "lon": 15.8899132928,
    "address_count": 4,
    "capacity": 16,
    "current_cars": 11,
    "occupancy": 0.69
  },
  {
    "street": "Breg",
    "lat": 45.8766479597,
    "lon": 16.1203893312,
    "address_count": 73,
    "capacity": 69,
    "current_cars": 43,
    "occupancy": 0.62
  },
  {
    "street": "Bregalnička ulica",
    "lat": 45.8190756311,
    "lon": 16.0582222405,
    "address_count": 25,
    "capacity": 52,
    "current_cars": 29,
    "occupancy": 0.56
  },
  {
    "street": "Breganska ulica",
    "lat": 45.8131865745,
    "lon": 15.8649353872,
    "address_count": 41,
    "capacity": 37,
    "current_cars": 16,
    "occupancy": 0.43
  },
  {
    "street": "Bregovita ulica",
    "lat": 45.9040824142,
    "lon": 15.8844160351,
    "address_count": 114,
    "capacity": 54,
    "current_cars": 45,
    "occupancy": 0.83
  },
  {
    "street": "Bregovita ulica I odvojak",
    "lat": 45.9614806927,
    "lon": 15.8246616558,
    "address_count": 14,
    "capacity": 75,
    "current_cars": 38,
    "occupancy": 0.51
  },
  {
    "street": "Bregovita ulica I. odvojak",
    "lat": 45.9359981159,
    "lon": 15.7976714603,
    "address_count": 2,
    "capacity": 78,
    "current_cars": 29,
    "occupancy": 0.37
  },
  {
    "street": "Bregovljanska cesta",
    "lat": 45.91412108,
    "lon": 15.7880425165,
    "address_count": 83,
    "capacity": 17,
    "current_cars": 12,
    "occupancy": 0.71
  },
  {
    "street": "Brestik",
    "lat": 45.8387075924,
    "lon": 16.0424626147,
    "address_count": 30,
    "capacity": 67,
    "current_cars": 41,
    "occupancy": 0.61
  },
  {
    "street": "Brestovac",
    "lat": 45.8280484857,
    "lon": 15.9952062008,
    "address_count": 9,
    "capacity": 71,
    "current_cars": 24,
    "occupancy": 0.34
  },
  {
    "street": "Brestovečka ulica",
    "lat": 45.832218606,
    "lon": 16.095727822,
    "address_count": 201,
    "capacity": 62,
    "current_cars": 22,
    "occupancy": 0.35
  },
  {
    "street": "Brezdanička ulica",
    "lat": 45.8112316885,
    "lon": 15.9013736102,
    "address_count": 23,
    "capacity": 10,
    "current_cars": 9,
    "occupancy": 0.9
  },
  {
    "street": "Brezinska ulica",
    "lat": 45.8678105335,
    "lon": 15.8460874041,
    "address_count": 25,
    "capacity": 55,
    "current_cars": 29,
    "occupancy": 0.53
  },
  {
    "street": "Brezinščak",
    "lat": 45.8463069612,
    "lon": 15.9996996441,
    "address_count": 20,
    "capacity": 45,
    "current_cars": 37,
    "occupancy": 0.82
  },
  {
    "street": "Brezje",
    "lat": 45.9763596945,
    "lon": 15.8299133942,
    "address_count": 10,
    "capacity": 60,
    "current_cars": 56,
    "occupancy": 0.93
  },
  {
    "street": "Breznička I.",
    "lat": 45.7990491963,
    "lon": 15.9878429384,
    "address_count": 20,
    "capacity": 61,
    "current_cars": 32,
    "occupancy": 0.52
  },
  {
    "street": "Breznička II.",
    "lat": 45.7989379735,
    "lon": 15.9876714111,
    "address_count": 10,
    "capacity": 53,
    "current_cars": 48,
    "occupancy": 0.91
  },
  {
    "street": "Brezovička cesta",
    "lat": 45.7456056761,
    "lon": 15.9231689298,
    "address_count": 322,
    "capacity": 57,
    "current_cars": 27,
    "occupancy": 0.47
  },
  {
    "street": "Brežanska ulica",
    "lat": 45.8190868364,
    "lon": 15.9020093583,
    "address_count": 8,
    "capacity": 59,
    "current_cars": 32,
    "occupancy": 0.54
  },
  {
    "street": "Brežovanka",
    "lat": 45.8787621056,
    "lon": 16.0141554411,
    "address_count": 37,
    "capacity": 33,
    "current_cars": 26,
    "occupancy": 0.79
  },
  {
    "street": "Brgatska ulica",
    "lat": 45.818752555,
    "lon": 16.0608475028,
    "address_count": 34,
    "capacity": 71,
    "current_cars": 64,
    "occupancy": 0.9
  },
  {
    "street": "Brgodski put",
    "lat": 45.8098762112,
    "lon": 16.0422098567,
    "address_count": 30,
    "capacity": 21,
    "current_cars": 10,
    "occupancy": 0.48
  },
  {
    "street": "Bribirska ulica",
    "lat": 45.8034944132,
    "lon": 15.9907947455,
    "address_count": 52,
    "capacity": 63,
    "current_cars": 18,
    "occupancy": 0.29
  },
  {
    "street": "Brijunska ulica",
    "lat": 45.7977767752,
    "lon": 16.0029975684,
    "address_count": 19,
    "capacity": 70,
    "current_cars": 48,
    "occupancy": 0.69
  },
  {
    "street": "Brinjska ulica",
    "lat": 45.7957172612,
    "lon": 15.9471632221,
    "address_count": 8,
    "capacity": 28,
    "current_cars": 19,
    "occupancy": 0.68
  },
  {
    "street": "Britanski trg",
    "lat": 45.8133015926,
    "lon": 15.9646112317,
    "address_count": 14,
    "capacity": 38,
    "current_cars": 27,
    "occupancy": 0.71
  },
  {
    "street": "Brkljačićeva ulica",
    "lat": 45.8158561018,
    "lon": 16.0250131537,
    "address_count": 36,
    "capacity": 45,
    "current_cars": 36,
    "occupancy": 0.8
  },
  {
    "street": "Brodska ulica",
    "lat": 45.7803388832,
    "lon": 15.9819192902,
    "address_count": 2,
    "capacity": 17,
    "current_cars": 10,
    "occupancy": 0.59
  },
  {
    "street": "Brsečka ulica",
    "lat": 45.8115825107,
    "lon": 16.0464967637,
    "address_count": 14,
    "capacity": 68,
    "current_cars": 40,
    "occupancy": 0.59
  },
  {
    "street": "Brušanska ulica",
    "lat": 45.7938932286,
    "lon": 15.9301638914,
    "address_count": 3,
    "capacity": 79,
    "current_cars": 64,
    "occupancy": 0.81
  },
  {
    "street": "Brčka ulica",
    "lat": 45.82622984,
    "lon": 16.0505969141,
    "address_count": 1,
    "capacity": 57,
    "current_cars": 50,
    "occupancy": 0.88
  },
  {
    "street": "Bubnjaračka ulica",
    "lat": 45.805842878,
    "lon": 15.9041369119,
    "address_count": 36,
    "capacity": 14,
    "current_cars": 5,
    "occupancy": 0.36
  },
  {
    "street": "Budanjščak",
    "lat": 45.870028556,
    "lon": 16.0185761586,
    "address_count": 18,
    "capacity": 51,
    "current_cars": 26,
    "occupancy": 0.51
  },
  {
    "street": "Budaševska ulica",
    "lat": 45.7891588642,
    "lon": 16.0204173368,
    "address_count": 31,
    "capacity": 10,
    "current_cars": 4,
    "occupancy": 0.4
  },
  {
    "street": "Budeki",
    "lat": 45.8920955503,
    "lon": 16.0339394196,
    "address_count": 14,
    "capacity": 36,
    "current_cars": 16,
    "occupancy": 0.44
  },
  {
    "street": "Budenečka cesta",
    "lat": 45.8360004611,
    "lon": 16.1761633897,
    "address_count": 62,
    "capacity": 78,
    "current_cars": 50,
    "occupancy": 0.64
  },
  {
    "street": "Budenečka cesta I. odvojak",
    "lat": 45.8342035563,
    "lon": 16.1740361249,
    "address_count": 5,
    "capacity": 41,
    "current_cars": 32,
    "occupancy": 0.78
  },
  {
    "street": "Budenečki put",
    "lat": 45.8219994222,
    "lon": 16.1633896294,
    "address_count": 11,
    "capacity": 64,
    "current_cars": 19,
    "occupancy": 0.3
  },
  {
    "street": "Budimska ulica",
    "lat": 45.8253276433,
    "lon": 16.1204716506,
    "address_count": 42,
    "capacity": 80,
    "current_cars": 70,
    "occupancy": 0.88
  },
  {
    "street": "Budinščinska ulica",
    "lat": 45.8382430326,
    "lon": 16.0389909469,
    "address_count": 3,
    "capacity": 45,
    "current_cars": 35,
    "occupancy": 0.78
  },
  {
    "street": "Budorova ulica",
    "lat": 45.9279621411,
    "lon": 16.1724451224,
    "address_count": 11,
    "capacity": 61,
    "current_cars": 23,
    "occupancy": 0.38
  },
  {
    "street": "Budrovački put",
    "lat": 45.8321540843,
    "lon": 16.067124392,
    "address_count": 3,
    "capacity": 70,
    "current_cars": 42,
    "occupancy": 0.6
  },
  {
    "street": "Budvanska ulica",
    "lat": 45.7878610885,
    "lon": 15.9479359061,
    "address_count": 15,
    "capacity": 59,
    "current_cars": 19,
    "occupancy": 0.32
  },
  {
    "street": "Bugarova ulica",
    "lat": 45.7569000178,
    "lon": 15.8842785947,
    "address_count": 19,
    "capacity": 57,
    "current_cars": 25,
    "occupancy": 0.44
  },
  {
    "street": "Buhini",
    "lat": 45.9043641101,
    "lon": 16.0594553148,
    "address_count": 11,
    "capacity": 65,
    "current_cars": 56,
    "occupancy": 0.86
  },
  {
    "street": "Bujavički put",
    "lat": 45.8167576069,
    "lon": 15.92758694,
    "address_count": 8,
    "capacity": 70,
    "current_cars": 28,
    "occupancy": 0.4
  },
  {
    "street": "Bujini",
    "lat": 45.7497331307,
    "lon": 15.9938782233,
    "address_count": 17,
    "capacity": 66,
    "current_cars": 38,
    "occupancy": 0.58
  },
  {
    "street": "Bukali",
    "lat": 45.8888148454,
    "lon": 16.1907979132,
    "address_count": 11,
    "capacity": 22,
    "current_cars": 9,
    "occupancy": 0.41
  },
  {
    "street": "Bukevjanska ulica",
    "lat": 45.7849264004,
    "lon": 16.0120411437,
    "address_count": 15,
    "capacity": 13,
    "current_cars": 9,
    "occupancy": 0.69
  },
  {
    "street": "Bukov dol",
    "lat": 45.8342566426,
    "lon": 16.0037562443,
    "address_count": 20,
    "capacity": 72,
    "current_cars": 58,
    "occupancy": 0.81
  },
  {
    "street": "Bukovac",
    "lat": 45.8387145743,
    "lon": 16.0077876678,
    "address_count": 169,
    "capacity": 52,
    "current_cars": 22,
    "occupancy": 0.42
  },
  {
    "street": "Bukovačka cesta",
    "lat": 45.8368843403,
    "lon": 16.0039114255,
    "address_count": 464,
    "capacity": 48,
    "current_cars": 35,
    "occupancy": 0.73
  },
  {
    "street": "Bukovački obronak",
    "lat": 45.8342066763,
    "lon": 16.0091923122,
    "address_count": 16,
    "capacity": 79,
    "current_cars": 72,
    "occupancy": 0.91
  },
  {
    "street": "Bukovački ogranak I.",
    "lat": 45.8347534029,
    "lon": 16.0085504174,
    "address_count": 9,
    "capacity": 48,
    "current_cars": 23,
    "occupancy": 0.48
  },
  {
    "street": "Bukovački ogranak II.",
    "lat": 45.8359014111,
    "lon": 16.0085946016,
    "address_count": 12,
    "capacity": 48,
    "current_cars": 24,
    "occupancy": 0.5
  },
  {
    "street": "Bukovački ogranak III.",
    "lat": 45.83627591,
    "lon": 16.0082553026,
    "address_count": 9,
    "capacity": 62,
    "current_cars": 46,
    "occupancy": 0.74
  },
  {
    "street": "Bukovački ogranak IV.",
    "lat": 45.8367560296,
    "lon": 16.0090069493,
    "address_count": 26,
    "capacity": 50,
    "current_cars": 28,
    "occupancy": 0.56
  },
  {
    "street": "Bukovački vijenac",
    "lat": 45.8407874463,
    "lon": 16.0092093892,
    "address_count": 35,
    "capacity": 13,
    "current_cars": 7,
    "occupancy": 0.54
  },
  {
    "street": "Bukovački vijenac I. odvojak",
    "lat": 45.8402512829,
    "lon": 16.010520742,
    "address_count": 4,
    "capacity": 34,
    "current_cars": 10,
    "occupancy": 0.29
  },
  {
    "street": "Bukovački vijenac II. odvojak",
    "lat": 45.8415391274,
    "lon": 16.0097424873,
    "address_count": 11,
    "capacity": 49,
    "current_cars": 33,
    "occupancy": 0.67
  },
  {
    "street": "Bukovački zavoj",
    "lat": 45.8336657914,
    "lon": 16.0091173381,
    "address_count": 11,
    "capacity": 35,
    "current_cars": 33,
    "occupancy": 0.94
  },
  {
    "street": "Bukovečka ulica",
    "lat": 45.9107565836,
    "lon": 15.7580585049,
    "address_count": 7,
    "capacity": 80,
    "current_cars": 41,
    "occupancy": 0.51
  },
  {
    "street": "Bukovečke stube",
    "lat": 45.8349914346,
    "lon": 16.0068907498,
    "address_count": 8,
    "capacity": 39,
    "current_cars": 30,
    "occupancy": 0.77
  },
  {
    "street": "Bukovečki krč",
    "lat": 45.8376546352,
    "lon": 16.0019922869,
    "address_count": 29,
    "capacity": 79,
    "current_cars": 71,
    "occupancy": 0.9
  },
  {
    "street": "Bukovečki krč II.",
    "lat": 45.8378213119,
    "lon": 16.0016294743,
    "address_count": 16,
    "capacity": 59,
    "current_cars": 54,
    "occupancy": 0.92
  },
  {
    "street": "Bukovinčev put",
    "lat": 45.8087146195,
    "lon": 15.8419123283,
    "address_count": 14,
    "capacity": 51,
    "current_cars": 23,
    "occupancy": 0.45
  },
  {
    "street": "Bukovje",
    "lat": 45.8807402099,
    "lon": 16.0707750639,
    "address_count": 9,
    "capacity": 47,
    "current_cars": 31,
    "occupancy": 0.66
  },
  {
    "street": "Bukovčak",
    "lat": 45.6236137745,
    "lon": 15.9399025586,
    "address_count": 94,
    "capacity": 52,
    "current_cars": 17,
    "occupancy": 0.33
  },
  {
    "street": "Bukovšćak",
    "lat": 45.9059357193,
    "lon": 15.8008755666,
    "address_count": 6,
    "capacity": 55,
    "current_cars": 18,
    "occupancy": 0.33
  },
  {
    "street": "Bukoščak",
    "lat": 45.8221088374,
    "lon": 15.8508514212,
    "address_count": 36,
    "capacity": 41,
    "current_cars": 13,
    "occupancy": 0.32
  },
  {
    "street": "Bukoščanski odvojak",
    "lat": 45.8224312848,
    "lon": 15.8506871923,
    "address_count": 1,
    "capacity": 70,
    "current_cars": 30,
    "occupancy": 0.43
  },
  {
    "street": "Bukvići",
    "lat": 45.9802277429,
    "lon": 15.8091808206,
    "address_count": 4,
    "capacity": 72,
    "current_cars": 30,
    "occupancy": 0.42
  },
  {
    "street": "Bukviček",
    "lat": 45.6350403011,
    "lon": 15.9226249267,
    "address_count": 1,
    "capacity": 15,
    "current_cars": 12,
    "occupancy": 0.8
  },
  {
    "street": "Bulinačka ulica",
    "lat": 45.8314954732,
    "lon": 16.0744756807,
    "address_count": 19,
    "capacity": 13,
    "current_cars": 11,
    "occupancy": 0.85
  },
  {
    "street": "Bulićeva ulica",
    "lat": 45.7388138736,
    "lon": 15.9618424512,
    "address_count": 30,
    "capacity": 61,
    "current_cars": 48,
    "occupancy": 0.79
  },
  {
    "street": "Bunjaki",
    "lat": 45.8582785322,
    "lon": 15.9711191004,
    "address_count": 13,
    "capacity": 10,
    "current_cars": 4,
    "occupancy": 0.4
  },
  {
    "street": "Bunjevačka ulica",
    "lat": 45.8089957918,
    "lon": 15.9198141822,
    "address_count": 36,
    "capacity": 61,
    "current_cars": 41,
    "occupancy": 0.67
  },
  {
    "street": "Burićev odvojak",
    "lat": 45.7556451742,
    "lon": 15.9529057732,
    "address_count": 74,
    "capacity": 66,
    "current_cars": 56,
    "occupancy": 0.85
  },
  {
    "street": "Burićeva ulica",
    "lat": 45.7579086879,
    "lon": 15.9504612145,
    "address_count": 47,
    "capacity": 31,
    "current_cars": 27,
    "occupancy": 0.87
  },
  {
    "street": "Busovačka ulica",
    "lat": 45.7958396307,
    "lon": 15.9278660609,
    "address_count": 18,
    "capacity": 75,
    "current_cars": 58,
    "occupancy": 0.77
  },
  {
    "street": "Buzetska ulica",
    "lat": 45.8118612744,
    "lon": 16.0478414084,
    "address_count": 42,
    "capacity": 77,
    "current_cars": 65,
    "occupancy": 0.84
  },
  {
    "street": "Buzinska cesta",
    "lat": 45.7512709492,
    "lon": 15.9933988089,
    "address_count": 61,
    "capacity": 26,
    "current_cars": 14,
    "occupancy": 0.54
  },
  {
    "street": "Buzinski krči",
    "lat": 45.7553175203,
    "lon": 15.9925481048,
    "address_count": 15,
    "capacity": 75,
    "current_cars": 56,
    "occupancy": 0.75
  },
  {
    "street": "Buzinski prilaz",
    "lat": 45.7480042675,
    "lon": 15.9961119029,
    "address_count": 28,
    "capacity": 60,
    "current_cars": 39,
    "occupancy": 0.65
  },
  {
    "street": "Buzinščak",
    "lat": 45.823164998,
    "lon": 15.9090138594,
    "address_count": 1,
    "capacity": 70,
    "current_cars": 39,
    "occupancy": 0.56
  },
  {
    "street": "Bučarova ulica",
    "lat": 45.8159953622,
    "lon": 15.9565224945,
    "address_count": 18,
    "capacity": 32,
    "current_cars": 29,
    "occupancy": 0.91
  },
  {
    "street": "Bučijeva ulica",
    "lat": 45.9391654901,
    "lon": 16.1435071997,
    "address_count": 6,
    "capacity": 12,
    "current_cars": 7,
    "occupancy": 0.58
  },
  {
    "street": "Buševačka ulica",
    "lat": 45.785074013,
    "lon": 16.0154657278,
    "address_count": 24,
    "capacity": 75,
    "current_cars": 27,
    "occupancy": 0.36
  },
  {
    "street": "Bužimska ulica",
    "lat": 45.796684609,
    "lon": 15.9505857965,
    "address_count": 1,
    "capacity": 41,
    "current_cars": 33,
    "occupancy": 0.8
  },
  {
    "street": "Bziki",
    "lat": 45.9274385587,
    "lon": 15.7908853843,
    "address_count": 26,
    "capacity": 69,
    "current_cars": 28,
    "occupancy": 0.41
  },
  {
    "street": "Capekov put",
    "lat": 45.827081154,
    "lon": 15.856877026,
    "address_count": 5,
    "capacity": 23,
    "current_cars": 20,
    "occupancy": 0.87
  },
  {
    "street": "Capraška ulica",
    "lat": 45.7952805485,
    "lon": 16.0166893121,
    "address_count": 5,
    "capacity": 21,
    "current_cars": 7,
    "occupancy": 0.33
  },
  {
    "street": "Carevdarska ulica",
    "lat": 45.8251023155,
    "lon": 16.0456610728,
    "address_count": 7,
    "capacity": 78,
    "current_cars": 51,
    "occupancy": 0.65
  },
  {
    "street": "Carica",
    "lat": 45.7349032995,
    "lon": 16.0012816482,
    "address_count": 10,
    "capacity": 46,
    "current_cars": 33,
    "occupancy": 0.72
  },
  {
    "street": "Carićeva ulica",
    "lat": 45.8216010264,
    "lon": 16.0952966419,
    "address_count": 42,
    "capacity": 54,
    "current_cars": 23,
    "occupancy": 0.43
  },
  {
    "street": "Carići",
    "lat": 45.8281295398,
    "lon": 16.1311150861,
    "address_count": 9,
    "capacity": 33,
    "current_cars": 20,
    "occupancy": 0.61
  },
  {
    "street": "Cavtatska ulica",
    "lat": 45.7412424955,
    "lon": 16.018271712,
    "address_count": 19,
    "capacity": 39,
    "current_cars": 23,
    "occupancy": 0.59
  },
  {
    "street": "Cazinska ulica",
    "lat": 45.8264148101,
    "lon": 16.0672128546,
    "address_count": 6,
    "capacity": 41,
    "current_cars": 16,
    "occupancy": 0.39
  },
  {
    "street": "Cazinski odvojak",
    "lat": 45.8268275859,
    "lon": 16.0656012544,
    "address_count": 4,
    "capacity": 76,
    "current_cars": 47,
    "occupancy": 0.62
  },
  {
    "street": "Cebini",
    "lat": 45.7495070678,
    "lon": 15.9951713741,
    "address_count": 38,
    "capacity": 68,
    "current_cars": 38,
    "occupancy": 0.56
  },
  {
    "street": "Cebići mali",
    "lat": 45.8980627237,
    "lon": 16.0282997896,
    "address_count": 11,
    "capacity": 45,
    "current_cars": 36,
    "occupancy": 0.8
  },
  {
    "street": "Cebići veliki",
    "lat": 45.8983361824,
    "lon": 16.0318165906,
    "address_count": 8,
    "capacity": 41,
    "current_cars": 13,
    "occupancy": 0.32
  },
  {
    "street": "Cekovići",
    "lat": 45.9036656148,
    "lon": 16.0644235849,
    "address_count": 16,
    "capacity": 67,
    "current_cars": 26,
    "occupancy": 0.39
  },
  {
    "street": "Celići",
    "lat": 45.7027078593,
    "lon": 15.9062839763,
    "address_count": 5,
    "capacity": 17,
    "current_cars": 8,
    "occupancy": 0.47
  },
  {
    "street": "Celjska ulica",
    "lat": 45.8067110684,
    "lon": 15.9224811052,
    "address_count": 35,
    "capacity": 76,
    "current_cars": 40,
    "occupancy": 0.53
  },
  {
    "street": "Celovečka ulica",
    "lat": 45.8418824846,
    "lon": 16.0474594502,
    "address_count": 59,
    "capacity": 51,
    "current_cars": 36,
    "occupancy": 0.71
  },
  {
    "street": "Celovečki odvojak I.",
    "lat": 45.8416760663,
    "lon": 16.0491212647,
    "address_count": 34,
    "capacity": 29,
    "current_cars": 16,
    "occupancy": 0.55
  },
  {
    "street": "Celovečki odvojak II.",
    "lat": 45.8418612506,
    "lon": 16.0486975482,
    "address_count": 16,
    "capacity": 63,
    "current_cars": 46,
    "occupancy": 0.73
  },
  {
    "street": "Celovečki odvojak III.",
    "lat": 45.8421295368,
    "lon": 16.0485554384,
    "address_count": 20,
    "capacity": 27,
    "current_cars": 12,
    "occupancy": 0.44
  },
  {
    "street": "Celovečki odvojak IV.",
    "lat": 45.8425717598,
    "lon": 16.0480943092,
    "address_count": 13,
    "capacity": 33,
    "current_cars": 14,
    "occupancy": 0.42
  },
  {
    "street": "Celovečki odvojak V.",
    "lat": 45.8428927838,
    "lon": 16.0478089642,
    "address_count": 21,
    "capacity": 60,
    "current_cars": 52,
    "occupancy": 0.87
  },
  {
    "street": "Cenkovečka ulica",
    "lat": 45.79288706,
    "lon": 15.9110423384,
    "address_count": 11,
    "capacity": 43,
    "current_cars": 19,
    "occupancy": 0.44
  },
  {
    "street": "Cepike",
    "lat": 45.8419645795,
    "lon": 15.9118300009,
    "address_count": 2,
    "capacity": 19,
    "current_cars": 11,
    "occupancy": 0.58
  },
  {
    "street": "Cerićka ulica",
    "lat": 45.821011046,
    "lon": 16.0529824062,
    "address_count": 13,
    "capacity": 69,
    "current_cars": 46,
    "occupancy": 0.67
  },
  {
    "street": "Cerjani",
    "lat": 45.6456097815,
    "lon": 15.9076220237,
    "address_count": 34,
    "capacity": 35,
    "current_cars": 22,
    "occupancy": 0.63
  },
  {
    "street": "Cerjani I.",
    "lat": 45.645317881,
    "lon": 15.9067385668,
    "address_count": 11,
    "capacity": 33,
    "current_cars": 16,
    "occupancy": 0.48
  },
  {
    "street": "Cerjani II.",
    "lat": 45.6445544195,
    "lon": 15.9071479023,
    "address_count": 4,
    "capacity": 20,
    "current_cars": 11,
    "occupancy": 0.55
  },
  {
    "street": "Cerjanska ulica",
    "lat": 45.81032564,
    "lon": 16.0143080699,
    "address_count": 19,
    "capacity": 67,
    "current_cars": 25,
    "occupancy": 0.37
  },
  {
    "street": "Cerje",
    "lat": 45.6567615348,
    "lon": 15.9423029763,
    "address_count": 11,
    "capacity": 64,
    "current_cars": 23,
    "occupancy": 0.36
  },
  {
    "street": "Cernička ulica",
    "lat": 45.7994399628,
    "lon": 15.958390272,
    "address_count": 58,
    "capacity": 29,
    "current_cars": 19,
    "occupancy": 0.66
  },
  {
    "street": "Cerovac",
    "lat": 45.8225386044,
    "lon": 15.9417471424,
    "address_count": 35,
    "capacity": 21,
    "current_cars": 10,
    "occupancy": 0.48
  },
  {
    "street": "Cerska ulica",
    "lat": 45.820057418,
    "lon": 16.1244197591,
    "address_count": 70,
    "capacity": 32,
    "current_cars": 29,
    "occupancy": 0.91
  },
  {
    "street": "Cesargradska ulica",
    "lat": 45.8005732973,
    "lon": 15.9514048385,
    "address_count": 14,
    "capacity": 49,
    "current_cars": 30,
    "occupancy": 0.61
  },
  {
    "street": "Cesari",
    "lat": 45.8779536683,
    "lon": 16.0398243573,
    "address_count": 29,
    "capacity": 23,
    "current_cars": 16,
    "occupancy": 0.7
  },
  {
    "street": "Cesarov gaj",
    "lat": 45.8582402159,
    "lon": 15.9569603854,
    "address_count": 7,
    "capacity": 60,
    "current_cars": 45,
    "occupancy": 0.75
  },
  {
    "street": "Cesta Ivana Mažuranića",
    "lat": 45.9138742494,
    "lon": 16.1225990649,
    "address_count": 218,
    "capacity": 61,
    "current_cars": 24,
    "occupancy": 0.39
  },
  {
    "street": "Cetingradska ulica",
    "lat": 45.7953134476,
    "lon": 15.9482876061,
    "address_count": 19,
    "capacity": 74,
    "current_cars": 60,
    "occupancy": 0.81
  },
  {
    "street": "Cetinovačka ulica",
    "lat": 45.8415273217,
    "lon": 16.0321382033,
    "address_count": 18,
    "capacity": 55,
    "current_cars": 28,
    "occupancy": 0.51
  },
  {
    "street": "Cetinska ulica",
    "lat": 45.7411805288,
    "lon": 16.0186865263,
    "address_count": 12,
    "capacity": 62,
    "current_cars": 51,
    "occupancy": 0.82
  },
  {
    "street": "Ciginovačka ulica",
    "lat": 45.8165750473,
    "lon": 15.8836575378,
    "address_count": 46,
    "capacity": 37,
    "current_cars": 29,
    "occupancy": 0.78
  },
  {
    "street": "Ciglanska ulica",
    "lat": 45.8149364353,
    "lon": 15.928136103,
    "address_count": 14,
    "capacity": 60,
    "current_cars": 29,
    "occupancy": 0.48
  },
  {
    "street": "Ciglarska ulica",
    "lat": 45.7488931441,
    "lon": 15.8991457921,
    "address_count": 72,
    "capacity": 18,
    "current_cars": 12,
    "occupancy": 0.67
  },
  {
    "street": "Ciglenečka ulica",
    "lat": 45.8304754076,
    "lon": 16.0494536517,
    "address_count": 48,
    "capacity": 79,
    "current_cars": 70,
    "occupancy": 0.89
  },
  {
    "street": "Ciki",
    "lat": 45.8923045597,
    "lon": 16.0238174241,
    "address_count": 16,
    "capacity": 38,
    "current_cars": 22,
    "occupancy": 0.58
  },
  {
    "street": "Cilakovec",
    "lat": 45.8730478586,
    "lon": 16.0116457473,
    "address_count": 2,
    "capacity": 74,
    "current_cars": 64,
    "occupancy": 0.86
  },
  {
    "street": "Cindeki",
    "lat": 45.8444790535,
    "lon": 16.0341265722,
    "address_count": 10,
    "capacity": 12,
    "current_cars": 10,
    "occupancy": 0.83
  },
  {
    "street": "Cirkovci",
    "lat": 45.8073324543,
    "lon": 15.9204274875,
    "address_count": 98,
    "capacity": 64,
    "current_cars": 25,
    "occupancy": 0.39
  },
  {
    "street": "Cirkovljanska ulica",
    "lat": 45.7949383541,
    "lon": 15.9113871423,
    "address_count": 6,
    "capacity": 64,
    "current_cars": 58,
    "occupancy": 0.91
  },
  {
    "street": "Cmrok",
    "lat": 45.83745612,
    "lon": 15.9724494587,
    "address_count": 6,
    "capacity": 33,
    "current_cars": 21,
    "occupancy": 0.64
  },
  {
    "street": "Combajeva ulica",
    "lat": 45.9232638531,
    "lon": 16.1247853737,
    "address_count": 21,
    "capacity": 70,
    "current_cars": 55,
    "occupancy": 0.79
  },
  {
    "street": "Creska ulica",
    "lat": 45.7983019369,
    "lon": 15.9402601215,
    "address_count": 26,
    "capacity": 49,
    "current_cars": 35,
    "occupancy": 0.71
  },
  {
    "street": "Crni put",
    "lat": 45.7980015574,
    "lon": 15.9893313117,
    "address_count": 2,
    "capacity": 33,
    "current_cars": 20,
    "occupancy": 0.61
  },
  {
    "street": "Crnojezerska ulica",
    "lat": 45.8147482026,
    "lon": 15.8850268013,
    "address_count": 33,
    "capacity": 24,
    "current_cars": 8,
    "occupancy": 0.33
  },
  {
    "street": "Crnovrška ulica",
    "lat": 45.8178649549,
    "lon": 15.8806193873,
    "address_count": 7,
    "capacity": 61,
    "current_cars": 26,
    "occupancy": 0.43
  },
  {
    "street": "Cuglini",
    "lat": 45.8538058766,
    "lon": 16.0388824983,
    "address_count": 55,
    "capacity": 45,
    "current_cars": 24,
    "occupancy": 0.53
  },
  {
    "street": "Cunjska ulica",
    "lat": 45.808918414,
    "lon": 16.0424167932,
    "address_count": 21,
    "capacity": 33,
    "current_cars": 15,
    "occupancy": 0.45
  },
  {
    "street": "Curek",
    "lat": 45.6618114783,
    "lon": 15.9202301056,
    "address_count": 2,
    "capacity": 36,
    "current_cars": 33,
    "occupancy": 0.92
  },
  {
    "street": "Cvekov put",
    "lat": 45.8312158947,
    "lon": 15.8592842963,
    "address_count": 6,
    "capacity": 41,
    "current_cars": 36,
    "occupancy": 0.88
  },
  {
    "street": "Cvetki",
    "lat": 45.7355268261,
    "lon": 15.8807344647,
    "address_count": 26,
    "capacity": 20,
    "current_cars": 13,
    "occupancy": 0.65
  },
  {
    "street": "Cvetkovićev put",
    "lat": 45.8361641692,
    "lon": 15.8934456233,
    "address_count": 24,
    "capacity": 70,
    "current_cars": 27,
    "occupancy": 0.39
  },
  {
    "street": "Cvetkovići",
    "lat": 45.7297372051,
    "lon": 16.0104917238,
    "address_count": 14,
    "capacity": 33,
    "current_cars": 22,
    "occupancy": 0.67
  },
  {
    "street": "Cvjetna cesta",
    "lat": 45.7922956558,
    "lon": 15.9626258697,
    "address_count": 13,
    "capacity": 43,
    "current_cars": 37,
    "occupancy": 0.86
  },
  {
    "street": "Cvjetna ulica",
    "lat": 45.8896179458,
    "lon": 15.9570747761,
    "address_count": 83,
    "capacity": 18,
    "current_cars": 12,
    "occupancy": 0.67
  },
  {
    "street": "Cvjetni dol",
    "lat": 45.8351269927,
    "lon": 16.0030250711,
    "address_count": 9,
    "capacity": 53,
    "current_cars": 34,
    "occupancy": 0.64
  },
  {
    "street": "Cvjetno naselje I.",
    "lat": 45.7926593704,
    "lon": 15.9646354807,
    "address_count": 15,
    "capacity": 72,
    "current_cars": 30,
    "occupancy": 0.42
  },
  {
    "street": "Cvjetno naselje II.",
    "lat": 45.7925716474,
    "lon": 15.9657165731,
    "address_count": 24,
    "capacity": 39,
    "current_cars": 27,
    "occupancy": 0.69
  },
  {
    "street": "Cvjetno naselje III.",
    "lat": 45.7927736833,
    "lon": 15.9668048841,
    "address_count": 27,
    "capacity": 45,
    "current_cars": 19,
    "occupancy": 0.42
  },
  {
    "street": "Cvjetno naselje IV.",
    "lat": 45.7926896906,
    "lon": 15.9679316595,
    "address_count": 25,
    "capacity": 56,
    "current_cars": 29,
    "occupancy": 0.52
  },
  {
    "street": "Cvjećarska ulica",
    "lat": 45.8209088463,
    "lon": 16.0448062789,
    "address_count": 5,
    "capacity": 58,
    "current_cars": 41,
    "occupancy": 0.71
  },
  {
    "street": "Dabarska ulica",
    "lat": 45.8254336826,
    "lon": 16.0625220702,
    "address_count": 7,
    "capacity": 25,
    "current_cars": 14,
    "occupancy": 0.56
  },
  {
    "street": "Daljska ulica",
    "lat": 45.8250915565,
    "lon": 16.042880767,
    "address_count": 3,
    "capacity": 72,
    "current_cars": 21,
    "occupancy": 0.29
  },
  {
    "street": "Dalmatinska ulica",
    "lat": 45.8206588644,
    "lon": 16.0556699461,
    "address_count": 56,
    "capacity": 38,
    "current_cars": 31,
    "occupancy": 0.82
  },
  {
    "street": "Dankovečka ulica",
    "lat": 45.8373648545,
    "lon": 16.0558612095,
    "address_count": 61,
    "capacity": 16,
    "current_cars": 6,
    "occupancy": 0.38
  },
  {
    "street": "Dardska ulica",
    "lat": 45.8236355901,
    "lon": 16.042507924,
    "address_count": 8,
    "capacity": 21,
    "current_cars": 7,
    "occupancy": 0.33
  },
  {
    "street": "Daruvarska ulica",
    "lat": 45.792097905,
    "lon": 15.9356173619,
    "address_count": 9,
    "capacity": 53,
    "current_cars": 20,
    "occupancy": 0.38
  },
  {
    "street": "Davor",
    "lat": 45.8304599841,
    "lon": 15.9704251472,
    "address_count": 5,
    "capacity": 47,
    "current_cars": 44,
    "occupancy": 0.94
  },
  {
    "street": "Deanovečka ulica",
    "lat": 45.8305127602,
    "lon": 16.048676667,
    "address_count": 58,
    "capacity": 43,
    "current_cars": 32,
    "occupancy": 0.74
  },
  {
    "street": "Debanićev breg",
    "lat": 45.8153016818,
    "lon": 15.908281384,
    "address_count": 32,
    "capacity": 21,
    "current_cars": 9,
    "occupancy": 0.43
  },
  {
    "street": "Debanićeva ulica",
    "lat": 45.8136034213,
    "lon": 15.9107331762,
    "address_count": 49,
    "capacity": 23,
    "current_cars": 14,
    "occupancy": 0.61
  },
  {
    "street": "Debanićeve stube",
    "lat": 45.8147800441,
    "lon": 15.9076073578,
    "address_count": 8,
    "capacity": 11,
    "current_cars": 10,
    "occupancy": 0.91
  },
  {
    "street": "Dedinovečka ulica",
    "lat": 45.8490080731,
    "lon": 16.1333949272,
    "address_count": 8,
    "capacity": 67,
    "current_cars": 52,
    "occupancy": 0.78
  },
  {
    "street": "Dedići",
    "lat": 45.8461411197,
    "lon": 15.9465892669,
    "address_count": 111,
    "capacity": 76,
    "current_cars": 52,
    "occupancy": 0.68
  },
  {
    "street": "Dedovići",
    "lat": 45.7639744565,
    "lon": 16.0033372377,
    "address_count": 20,
    "capacity": 12,
    "current_cars": 4,
    "occupancy": 0.33
  },
  {
    "street": "Degidovečka ulica",
    "lat": 45.8357746743,
    "lon": 16.0410323825,
    "address_count": 42,
    "capacity": 25,
    "current_cars": 14,
    "occupancy": 0.56
  },
  {
    "street": "Dekanići",
    "lat": 45.7943368833,
    "lon": 15.9042578991,
    "address_count": 17,
    "capacity": 18,
    "current_cars": 9,
    "occupancy": 0.5
  },
  {
    "street": "Dekanovečka ulica",
    "lat": 45.8222513099,
    "lon": 15.9160286438,
    "address_count": 12,
    "capacity": 59,
    "current_cars": 39,
    "occupancy": 0.66
  },
  {
    "street": "Delenšice",
    "lat": 45.8206427854,
    "lon": 16.0851957113,
    "address_count": 18,
    "capacity": 35,
    "current_cars": 28,
    "occupancy": 0.8
  },
  {
    "street": "Delićeva ulica",
    "lat": 45.7545524478,
    "lon": 15.8827182585,
    "address_count": 14,
    "capacity": 46,
    "current_cars": 27,
    "occupancy": 0.59
  },
  {
    "street": "Delkovečka ulica",
    "lat": 45.757469182,
    "lon": 15.9031373106,
    "address_count": 5,
    "capacity": 53,
    "current_cars": 16,
    "occupancy": 0.3
  },
  {
    "street": "Delnička ulica",
    "lat": 45.8183655368,
    "lon": 16.0559391659,
    "address_count": 44,
    "capacity": 36,
    "current_cars": 17,
    "occupancy": 0.47
  },
  {
    "street": "Demerje",
    "lat": 45.7411245839,
    "lon": 15.8813339737,
    "address_count": 6,
    "capacity": 34,
    "current_cars": 27,
    "occupancy": 0.79
  },
  {
    "street": "Demerska ulica",
    "lat": 45.7309782005,
    "lon": 15.8862917158,
    "address_count": 44,
    "capacity": 21,
    "current_cars": 15,
    "occupancy": 0.71
  },
  {
    "street": "Demetrova ulica",
    "lat": 45.8176034499,
    "lon": 15.9732836007,
    "address_count": 21,
    "capacity": 22,
    "current_cars": 13,
    "occupancy": 0.59
  },
  {
    "street": "Demšarova ulica",
    "lat": 45.8293568633,
    "lon": 15.9015976408,
    "address_count": 36,
    "capacity": 38,
    "current_cars": 15,
    "occupancy": 0.39
  },
  {
    "street": "Derventska ulica",
    "lat": 45.8280188052,
    "lon": 16.0386948185,
    "address_count": 17,
    "capacity": 29,
    "current_cars": 24,
    "occupancy": 0.83
  },
  {
    "street": "Desinićka ulica",
    "lat": 45.808715236,
    "lon": 15.9358666487,
    "address_count": 24,
    "capacity": 32,
    "current_cars": 29,
    "occupancy": 0.91
  },
  {
    "street": "Desprimska ulica",
    "lat": 45.726461704,
    "lon": 15.8998866219,
    "address_count": 101,
    "capacity": 52,
    "current_cars": 46,
    "occupancy": 0.88
  },
  {
    "street": "Desprimska ulica I. odvojak",
    "lat": 45.7203743116,
    "lon": 15.8974089339,
    "address_count": 18,
    "capacity": 45,
    "current_cars": 25,
    "occupancy": 0.56
  },
  {
    "street": "Desprimska ulica II. odvojak",
    "lat": 45.72379322,
    "lon": 15.8996614567,
    "address_count": 12,
    "capacity": 14,
    "current_cars": 10,
    "occupancy": 0.71
  },
  {
    "street": "Desprimska ulica III. odvojak",
    "lat": 45.7281721956,
    "lon": 15.9020083976,
    "address_count": 24,
    "capacity": 76,
    "current_cars": 37,
    "occupancy": 0.49
  },
  {
    "street": "Desprimska ulica IV. odvojak",
    "lat": 45.7283812255,
    "lon": 15.8968284957,
    "address_count": 23,
    "capacity": 72,
    "current_cars": 27,
    "occupancy": 0.38
  },
  {
    "street": "Desprimski put",
    "lat": 45.7242183273,
    "lon": 15.9000255594,
    "address_count": 7,
    "capacity": 19,
    "current_cars": 8,
    "occupancy": 0.42
  },
  {
    "street": "Detiščak",
    "lat": 45.6590200785,
    "lon": 15.9321975421,
    "address_count": 26,
    "capacity": 13,
    "current_cars": 8,
    "occupancy": 0.62
  },
  {
    "street": "Devetačka ulica",
    "lat": 45.8092648002,
    "lon": 15.901058703,
    "address_count": 24,
    "capacity": 78,
    "current_cars": 69,
    "occupancy": 0.88
  },
  {
    "street": "Deščevec",
    "lat": 45.8808274965,
    "lon": 16.0180855479,
    "address_count": 76,
    "capacity": 61,
    "current_cars": 51,
    "occupancy": 0.84
  },
  {
    "street": "Dežanovački put",
    "lat": 45.7978089898,
    "lon": 15.9156339215,
    "address_count": 11,
    "capacity": 75,
    "current_cars": 45,
    "occupancy": 0.6
  },
  {
    "street": "Diljska ulica",
    "lat": 45.8260441151,
    "lon": 16.0535443618,
    "address_count": 44,
    "capacity": 62,
    "current_cars": 56,
    "occupancy": 0.9
  },
  {
    "street": "Dinarska ulica",
    "lat": 45.7974602899,
    "lon": 15.9839706609,
    "address_count": 83,
    "capacity": 75,
    "current_cars": 70,
    "occupancy": 0.93
  },
  {
    "street": "Dinarski put",
    "lat": 45.8018804984,
    "lon": 15.9108065374,
    "address_count": 33,
    "capacity": 74,
    "current_cars": 62,
    "occupancy": 0.84
  },
  {
    "street": "Dinjevački put",
    "lat": 45.8305373546,
    "lon": 16.0672820138,
    "address_count": 18,
    "capacity": 68,
    "current_cars": 34,
    "occupancy": 0.5
  },
  {
    "street": "Diogeneševa ulica",
    "lat": 45.7525834818,
    "lon": 15.9359216637,
    "address_count": 19,
    "capacity": 18,
    "current_cars": 8,
    "occupancy": 0.44
  },
  {
    "street": "Divjaščak",
    "lat": 45.8711049011,
    "lon": 15.8505221177,
    "address_count": 19,
    "capacity": 38,
    "current_cars": 28,
    "occupancy": 0.74
  },
  {
    "street": "Divoselska ulica",
    "lat": 45.8207991134,
    "lon": 15.9286855145,
    "address_count": 33,
    "capacity": 20,
    "current_cars": 12,
    "occupancy": 0.6
  },
  {
    "street": "Divuljska ulica",
    "lat": 45.7434536856,
    "lon": 16.015177643,
    "address_count": 9,
    "capacity": 57,
    "current_cars": 32,
    "occupancy": 0.56
  },
  {
    "street": "Dječji trg",
    "lat": 45.7992214833,
    "lon": 15.9043441131,
    "address_count": 2,
    "capacity": 24,
    "current_cars": 9,
    "occupancy": 0.38
  },
  {
    "street": "Dobojska ulica",
    "lat": 45.80217595,
    "lon": 16.0013068964,
    "address_count": 52,
    "capacity": 72,
    "current_cars": 30,
    "occupancy": 0.42
  },
  {
    "street": "Dobranska ulica",
    "lat": 45.8003853867,
    "lon": 15.9665276633,
    "address_count": 31,
    "capacity": 26,
    "current_cars": 18,
    "occupancy": 0.69
  },
  {
    "street": "Dobri dol",
    "lat": 45.8239628938,
    "lon": 15.9994352296,
    "address_count": 81,
    "capacity": 78,
    "current_cars": 33,
    "occupancy": 0.42
  },
  {
    "street": "Dobrilovićeva ulica",
    "lat": 45.8212756318,
    "lon": 15.879268967,
    "address_count": 11,
    "capacity": 62,
    "current_cars": 24,
    "occupancy": 0.39
  },
  {
    "street": "Dobrinjska ulica",
    "lat": 45.7925157862,
    "lon": 15.938038151,
    "address_count": 25,
    "capacity": 35,
    "current_cars": 19,
    "occupancy": 0.54
  },
  {
    "street": "Dobrodolska cesta",
    "lat": 45.8556345087,
    "lon": 16.1070728066,
    "address_count": 74,
    "capacity": 13,
    "current_cars": 7,
    "occupancy": 0.54
  },
  {
    "street": "Dobrodolski brijeg",
    "lat": 45.8610257532,
    "lon": 16.0964494749,
    "address_count": 30,
    "capacity": 63,
    "current_cars": 33,
    "occupancy": 0.52
  },
  {
    "street": "Dobrodolski brijeg I. odvojak",
    "lat": 45.8603256192,
    "lon": 16.0992423239,
    "address_count": 8,
    "capacity": 14,
    "current_cars": 4,
    "occupancy": 0.29
  },
  {
    "street": "Dobrodolski brijeg II. odvojak",
    "lat": 45.8594701969,
    "lon": 16.0975801763,
    "address_count": 13,
    "capacity": 80,
    "current_cars": 25,
    "occupancy": 0.31
  },
  {
    "street": "Dobrodolski odvojak",
    "lat": 45.8536386847,
    "lon": 16.1076505861,
    "address_count": 14,
    "capacity": 51,
    "current_cars": 30,
    "occupancy": 0.59
  },
  {
    "street": "Dobronićeva ulica",
    "lat": 45.7923276578,
    "lon": 15.9005665997,
    "address_count": 26,
    "capacity": 18,
    "current_cars": 12,
    "occupancy": 0.67
  },
  {
    "street": "Dobropoljska ulica",
    "lat": 45.8147280919,
    "lon": 16.0506732207,
    "address_count": 23,
    "capacity": 50,
    "current_cars": 47,
    "occupancy": 0.94
  },
  {
    "street": "Dokšićeva ulica",
    "lat": 45.8502706519,
    "lon": 16.1667531756,
    "address_count": 4,
    "capacity": 79,
    "current_cars": 46,
    "occupancy": 0.58
  },
  {
    "street": "Dol",
    "lat": 45.9035186223,
    "lon": 16.1080045871,
    "address_count": 15,
    "capacity": 31,
    "current_cars": 11,
    "occupancy": 0.35
  },
  {
    "street": "Dolac",
    "lat": 45.8141960358,
    "lon": 15.9772197721,
    "address_count": 6,
    "capacity": 20,
    "current_cars": 15,
    "occupancy": 0.75
  },
  {
    "street": "Dolci",
    "lat": 45.8721423615,
    "lon": 16.118628404,
    "address_count": 20,
    "capacity": 57,
    "current_cars": 49,
    "occupancy": 0.86
  },
  {
    "street": "Dolec",
    "lat": 45.8202407129,
    "lon": 15.8628913751,
    "address_count": 68,
    "capacity": 22,
    "current_cars": 19,
    "occupancy": 0.86
  },
  {
    "street": "Dolenica",
    "lat": 45.7570126446,
    "lon": 15.874538242,
    "address_count": 59,
    "capacity": 68,
    "current_cars": 40,
    "occupancy": 0.59
  },
  {
    "street": "Dolenska ulica",
    "lat": 45.8543217113,
    "lon": 15.8085362181,
    "address_count": 12,
    "capacity": 24,
    "current_cars": 18,
    "occupancy": 0.75
  },
  {
    "street": "Dolečki zavojek",
    "lat": 45.8134401845,
    "lon": 15.8615710004,
    "address_count": 4,
    "capacity": 41,
    "current_cars": 14,
    "occupancy": 0.34
  },
  {
    "street": "Dolina I. odvojak",
    "lat": 45.8063186813,
    "lon": 15.8875044522,
    "address_count": 8,
    "capacity": 23,
    "current_cars": 14,
    "occupancy": 0.61
  },
  {
    "street": "Doljani",
    "lat": 45.8121268168,
    "lon": 16.0101866327,
    "address_count": 11,
    "capacity": 35,
    "current_cars": 20,
    "occupancy": 0.57
  },
  {
    "street": "Doljek",
    "lat": 45.868768832,
    "lon": 15.9952088113,
    "address_count": 22,
    "capacity": 58,
    "current_cars": 47,
    "occupancy": 0.81
  },
  {
    "street": "Dolovska ulica",
    "lat": 45.8092614242,
    "lon": 15.8984918366,
    "address_count": 38,
    "capacity": 34,
    "current_cars": 14,
    "occupancy": 0.41
  },
  {
    "street": "Dolski put",
    "lat": 45.823538571,
    "lon": 15.9355304957,
    "address_count": 7,
    "capacity": 68,
    "current_cars": 21,
    "occupancy": 0.31
  },
  {
    "street": "Dolčić",
    "lat": 45.8303499858,
    "lon": 15.9983851508,
    "address_count": 53,
    "capacity": 34,
    "current_cars": 20,
    "occupancy": 0.59
  },
  {
    "street": "Domagovićka ulica",
    "lat": 45.8100362273,
    "lon": 15.9054528794,
    "address_count": 16,
    "capacity": 44,
    "current_cars": 36,
    "occupancy": 0.82
  },
  {
    "street": "Domaslovečka ulica",
    "lat": 45.8124234096,
    "lon": 15.8775828251,
    "address_count": 7,
    "capacity": 30,
    "current_cars": 11,
    "occupancy": 0.37
  },
  {
    "street": "Domaćinovićeva ulica",
    "lat": 45.7623238155,
    "lon": 15.9915233489,
    "address_count": 7,
    "capacity": 65,
    "current_cars": 46,
    "occupancy": 0.71
  },
  {
    "street": "Domašinečka ulica",
    "lat": 45.7938575347,
    "lon": 15.9109424648,
    "address_count": 2,
    "capacity": 38,
    "current_cars": 21,
    "occupancy": 0.55
  },
  {
    "street": "Dominićev odvojak",
    "lat": 45.8323981865,
    "lon": 16.1718242558,
    "address_count": 19,
    "capacity": 32,
    "current_cars": 30,
    "occupancy": 0.94
  },
  {
    "street": "Dominićev put",
    "lat": 45.8366162205,
    "lon": 16.1727578728,
    "address_count": 5,
    "capacity": 24,
    "current_cars": 19,
    "occupancy": 0.79
  },
  {
    "street": "Domitrovićeva ulica",
    "lat": 45.8186359483,
    "lon": 15.8878690695,
    "address_count": 33,
    "capacity": 52,
    "current_cars": 28,
    "occupancy": 0.54
  },
  {
    "street": "Domjanićeva ulica",
    "lat": 45.8784574338,
    "lon": 16.1093987655,
    "address_count": 15,
    "capacity": 33,
    "current_cars": 19,
    "occupancy": 0.58
  },
  {
    "street": "Domobranska ulica",
    "lat": 45.8144258281,
    "lon": 15.9440193287,
    "address_count": 23,
    "capacity": 17,
    "current_cars": 10,
    "occupancy": 0.59
  },
  {
    "street": "Domska ulica",
    "lat": 45.8274866127,
    "lon": 15.846391389,
    "address_count": 10,
    "capacity": 66,
    "current_cars": 53,
    "occupancy": 0.8
  },
  {
    "street": "Don Boscov odvojak",
    "lat": 45.8182890103,
    "lon": 15.8416803134,
    "address_count": 3,
    "capacity": 56,
    "current_cars": 31,
    "occupancy": 0.55
  },
  {
    "street": "Don Boscova ulica",
    "lat": 45.8182024682,
    "lon": 15.8430472707,
    "address_count": 38,
    "capacity": 43,
    "current_cars": 35,
    "occupancy": 0.81
  },
  {
    "street": "Donje Prekrižje",
    "lat": 45.8407974836,
    "lon": 15.9624253132,
    "address_count": 55,
    "capacity": 67,
    "current_cars": 40,
    "occupancy": 0.6
  },
  {
    "street": "Donje Svetice",
    "lat": 45.8057268602,
    "lon": 16.0145729472,
    "address_count": 97,
    "capacity": 35,
    "current_cars": 19,
    "occupancy": 0.54
  },
  {
    "street": "Donje polje",
    "lat": 45.8460499788,
    "lon": 16.16358664,
    "address_count": 4,
    "capacity": 54,
    "current_cars": 16,
    "occupancy": 0.3
  },
  {
    "street": "Donji Borčec",
    "lat": 45.8334964791,
    "lon": 15.8873150824,
    "address_count": 40,
    "capacity": 69,
    "current_cars": 45,
    "occupancy": 0.65
  },
  {
    "street": "Donji Brezinščak",
    "lat": 45.8448080669,
    "lon": 16.0026640474,
    "address_count": 36,
    "capacity": 70,
    "current_cars": 38,
    "occupancy": 0.54
  },
  {
    "street": "Donji Prečac",
    "lat": 45.8216013282,
    "lon": 16.0069752858,
    "address_count": 35,
    "capacity": 47,
    "current_cars": 38,
    "occupancy": 0.81
  },
  {
    "street": "Donji Pustodol",
    "lat": 45.8573338129,
    "lon": 15.9718731542,
    "address_count": 27,
    "capacity": 75,
    "current_cars": 52,
    "occupancy": 0.69
  },
  {
    "street": "Donji Rim",
    "lat": 45.8356123764,
    "lon": 16.0003489619,
    "address_count": 15,
    "capacity": 65,
    "current_cars": 50,
    "occupancy": 0.77
  },
  {
    "street": "Donji kraj",
    "lat": 45.8522772599,
    "lon": 16.0635629824,
    "address_count": 24,
    "capacity": 54,
    "current_cars": 32,
    "occupancy": 0.59
  },
  {
    "street": "Donjodragonoška cesta",
    "lat": 45.6640432712,
    "lon": 15.9439540617,
    "address_count": 69,
    "capacity": 73,
    "current_cars": 23,
    "occupancy": 0.32
  },
  {
    "street": "Donjopoljska ulica",
    "lat": 45.8297687349,
    "lon": 16.1863113012,
    "address_count": 8,
    "capacity": 51,
    "current_cars": 24,
    "occupancy": 0.47
  },
  {
    "street": "Doračićeva ulica",
    "lat": 45.8596021599,
    "lon": 15.7844346698,
    "address_count": 15,
    "capacity": 26,
    "current_cars": 11,
    "occupancy": 0.42
  },
  {
    "street": "Dorčići",
    "lat": 45.8732410236,
    "lon": 16.1182514074,
    "address_count": 4,
    "capacity": 31,
    "current_cars": 20,
    "occupancy": 0.65
  },
  {
    "street": "Dotrščinska ulica",
    "lat": 45.8572795897,
    "lon": 16.0304472047,
    "address_count": 76,
    "capacity": 45,
    "current_cars": 36,
    "occupancy": 0.8
  },
  {
    "street": "Draganići",
    "lat": 45.7598916879,
    "lon": 16.0055173129,
    "address_count": 30,
    "capacity": 57,
    "current_cars": 28,
    "occupancy": 0.49
  },
  {
    "street": "Draganićka grana",
    "lat": 45.7997199515,
    "lon": 15.9214742219,
    "address_count": 22,
    "capacity": 67,
    "current_cars": 53,
    "occupancy": 0.79
  },
  {
    "street": "Draganićka ulica",
    "lat": 45.7994412997,
    "lon": 15.9215153194,
    "address_count": 41,
    "capacity": 54,
    "current_cars": 35,
    "occupancy": 0.65
  },
  {
    "street": "Drage",
    "lat": 45.8289034539,
    "lon": 15.9434827846,
    "address_count": 7,
    "capacity": 10,
    "current_cars": 7,
    "occupancy": 0.7
  },
  {
    "street": "Dragonožečka cesta",
    "lat": 45.7070748084,
    "lon": 15.9406170375,
    "address_count": 36,
    "capacity": 76,
    "current_cars": 43,
    "occupancy": 0.57
  },
  {
    "street": "Dragozetićka ulica",
    "lat": 45.8264384342,
    "lon": 16.0569922536,
    "address_count": 26,
    "capacity": 33,
    "current_cars": 28,
    "occupancy": 0.85
  },
  {
    "street": "Dragulinec",
    "lat": 45.8391920455,
    "lon": 15.8950065239,
    "address_count": 18,
    "capacity": 52,
    "current_cars": 31,
    "occupancy": 0.6
  },
  {
    "street": "Dramaljska ulica",
    "lat": 45.8251796165,
    "lon": 16.0601707509,
    "address_count": 14,
    "capacity": 59,
    "current_cars": 42,
    "occupancy": 0.71
  },
  {
    "street": "Dravogradski put",
    "lat": 45.8081693993,
    "lon": 15.9166154744,
    "address_count": 20,
    "capacity": 58,
    "current_cars": 24,
    "occupancy": 0.41
  },
  {
    "street": "Dravska ulica",
    "lat": 45.8380856513,
    "lon": 16.0416518952,
    "address_count": 69,
    "capacity": 53,
    "current_cars": 23,
    "occupancy": 0.43
  },
  {
    "street": "Dravski zavoj",
    "lat": 45.8400866616,
    "lon": 16.0403217763,
    "address_count": 13,
    "capacity": 22,
    "current_cars": 7,
    "occupancy": 0.32
  },
  {
    "street": "Dračevička ulica",
    "lat": 45.7369563958,
    "lon": 16.0154149967,
    "address_count": 32,
    "capacity": 70,
    "current_cars": 66,
    "occupancy": 0.94
  },
  {
    "street": "Draškovec",
    "lat": 45.8662489962,
    "lon": 16.0028690494,
    "address_count": 19,
    "capacity": 59,
    "current_cars": 18,
    "occupancy": 0.31
  },
  {
    "street": "Draškovićeva ulica",
    "lat": 45.8093751962,
    "lon": 15.9836581191,
    "address_count": 88,
    "capacity": 33,
    "current_cars": 11,
    "occupancy": 0.33
  },
  {
    "street": "Drašnička ulica",
    "lat": 45.7904571377,
    "lon": 15.9236696971,
    "address_count": 5,
    "capacity": 29,
    "current_cars": 23,
    "occupancy": 0.79
  },
  {
    "street": "Dražice",
    "lat": 45.8178124531,
    "lon": 15.9395478049,
    "address_count": 12,
    "capacity": 59,
    "current_cars": 32,
    "occupancy": 0.54
  },
  {
    "street": "Drenje",
    "lat": 45.8964613625,
    "lon": 16.0579233063,
    "address_count": 23,
    "capacity": 54,
    "current_cars": 47,
    "occupancy": 0.87
  },
  {
    "street": "Drenovac",
    "lat": 45.8266872468,
    "lon": 15.9954638433,
    "address_count": 32,
    "capacity": 10,
    "current_cars": 9,
    "occupancy": 0.9
  },